Broker Title,Type,Price,Bedrooms,Bathrooms,Square Feet,Address,State,Administrative Area Level 2,Locality,Sub-Locality,Latitude,Longitude
Brokered by Pantiga Group Inc.,Co-op for sale,265000,1,1,750,875 Morrison Ave Apt 3M,"Bronx, NY 10473",Bronx County,The Bronx,East Bronx,40.8215857,-73.8740892
Brokered by CENTURY 21 MK Realty,Co-op for sale,440000,2,1,978,1350 Ocean Pkwy Apt 5G,"Brooklyn, NY 11230",New York,Kings County,Brooklyn,40.6157378,-73.9696944
Brokered by Engel & Volkers Americas,Co-op for sale,375000,2,1,850,800 Grand Concourse Apt 2JS,"Bronx, NY 10451",New York,Bronx County,The Bronx,40.8248699,-73.9229829
Brokered by COMPASS,Co-op for sale,259000,3,1,2184,34-41 85th St Unit 1D,"Jackson Heights, NY 11372",New York,Queens County,Queens,40.7531191,-73.8818757
Brokered by Jamie & Connie Real Estate Grp,Co-op for sale,430000,2,2,2184,91-15 Lamont Ave Unit 6D,"Elmhurst, NY 11373",New York,Queens County,Queens,40.7438639,-73.8745722
Brokered by Corcoran Chelsea/Flatiron,Co-op for sale,895000,3,1,2184,61 Jane St Apt 6N,"New York, NY 10014",New York,New York County,New York,40.7382981,-74.0058899
Brokered by Dorsa Group Realty,Co-op for sale,199000,3,1,325,9430 Ridge Blvd Apt 6D,"Brooklyn, NY 11209",New York,Kings County,Brooklyn,40.6181029,-74.0369047
Brokered by Coldwell Banker Realty,Co-op for sale,350000,1,1,700,5800 Arlington Ave Apt 21A,"Bronx, NY 10471",New York,Bronx County,The Bronx,40.9073699,-73.9065578
"Brokered by Nest Seekers International, Long Island",Co-op for sale,325000,1,1,2184,35-45 81st St Unit E1,"Queens, NY 11372",New York,Queens County,Queens,40.7505078,-73.8851355
Brokered by Du Chris Realty,Co-op for sale,230000,1,1,2184,33-24 Junction Blvd Unit 6R,"Jackson Heights, NY 11372",United States,New York,Queens County,40.7557689,-73.8734231
Brokered by H P Greenfield Real Estate Ltd,Co-op for sale,279000,1,1,750,1801 Ocean Ave Apt 4A,"Brooklyn, NY 11230",New York,Kings County,Brooklyn,40.6179165,-73.9546305
Brokered by E Realty International Corp,Co-op for sale,275000,1,1,2184,44-55 Kissena Blvd Unit 5F,"Flushing, NY 11355",New York,Queens County,Queens,40.7528774,-73.8211834
Brokered by Brown Harris Stevens,Co-op for sale,199900,1,1,2184,828 Gerard Ave Apt 5F,"Bronx, NY 10451",New York,Bronx County,The Bronx,40.8260352,-73.9256625
Brokered by Winzone Realty Inc,Co-op for sale,369000,2,1,2184,43-40 Union St Unit 3D,"Flushing, NY 11355",New York,Queens County,Queens,40.753455,-73.8209077
Brokered by Brown Harris Stevens,Co-op for sale,4250000,3,2,2400,123 Prince St Unit 1,"Manhattan, NY 10012",New York,New York County,New York,40.725464,-73.9999212
Brokered by VYLLA HOME,Co-op for sale,220500,2,1,900,350 Richmond Ter Apt 3M,"Staten Island, NY 10301",New York,Richmond County,Staten Island,40.6481488,-74.0847983
Brokered by Douglas Elliman  -111 Fifth Ave,Co-op for sale,3250000,2,2,1300,240 Centre St Unit 2M,"New York, NY 10013",New York County,New York,Manhattan,40.7199716,-73.9980266
Brokered by Brown Harris Stevens - 445 Park Avenue,Co-op for sale,849000,1,1,2184,263 W End Ave Apt 14C,"Manhattan, NY 10023",New York,New York County,New York,40.7802357,-73.9846328
Brokered by Piastro Realty LLC,Co-op for sale,559500,1,1,800,50 Brighton 1 Rd Unit 5H,"Brooklyn, NY 11235",New York,Kings County,Brooklyn,40.5751942,-73.9669983
Brokered by Douglas Elliman - 575 Madison Ave,Co-op for sale,750000,1,1,835,333 E 66th St Apt 8E,"New York, NY 10065",New York,New York County,New York,40.7643711,-73.9593578
Brokered by Monticello Real Estate Group,Co-op for sale,198000,1,1,2184,83-55 Woodhaven Blvd Unit 1A,"Woodhaven, NY 11421",New York,Queens County,Queens,40.700309,-73.8535466
Brokered by STROFFOLINO REALTY LLC,Co-op for sale,539000,2,2,1100,9425 Shore Rd Apt 4F,"Brooklyn, NY 11209",New York,Kings County,Brooklyn,40.6170731,-74.0383836
Brokered by Douglas Elliman - 3544 Johnson Ave,Co-op for sale,1295000,4,2,1995,2501 Palisade Ave Apt H2,"Bronx, NY 10463",New York,Bronx County,The Bronx,40.8809873,-73.9224337
Brokered by Brown Harris Stevens,Co-op for sale,280000,1,1,1000,8015 6th Ave Apt A1,"Brooklyn, NY 11209",New York,Kings County,Brooklyn,40.6241766,-74.0216837
Brokered by Berkshire Hathaway HomeServices New York Properties - Eastchester,Co-op for sale,259000,3,2,1089,7E Edgewater Park Unit E,"Bronx, NY 10465",United States,New York,Bronx County,40.8246371,-73.8072061
Brokered by Utopia Real Estate,Co-op for sale,69900,2,1,700,61 Edgewater Park Unit B,"Bronx, NY 10465",United States,New York,Bronx County,40.8224987,-73.8111568
Brokered by Charles H. Greenthal Property,Co-op for sale,1399000,3,4,1993,269-10 Grand Central Pkwy Unit 21W,"Floral Park, NY 11005",New York,Queens County,Queens,40.7566899,-73.72075
Brokered by RE MAX Boutique Realty,Co-op for sale,90000,1,1,450,1383 Plimpton Ave Apt 1C,"Bronx, NY 10452",New York,Bronx County,The Bronx,40.8423705,-73.9234444
Brokered by Charles H. Greenthal Property,Co-op for sale,449000,2,2,1549,26910 Grand Central Pkwy Apt 22L,"Floral Park, NY 11005",New York,Queens County,Queens,40.7577991,-73.7159564
Brokered by Corcoran East Side,Co-op for sale,550000,1,1,2184,609 Columbus Ave Apt 10I,"New York, NY 10024",New York,New York County,New York,40.7887084,-73.9700091
Brokered by COMPASS,Co-op for sale,1895000,2,2,2184,905 Union St Apt 1,"Brooklyn, NY 11215",New York,Kings County,Brooklyn,40.673976,-73.973535
Brokered by COMPASS,Co-op for sale,2375000,1,2,2184,10 Bleecker St Apt 5D,"Manhattan, NY 10012",New York,New York County,New York,40.7252187,-73.9929764
Brokered by Sotheby's International Realty - Downtown Manhattan,Co-op for sale,269000,1,1,2184,4901 Henry Hudson Pkwy W Apt 5F,"Bronx, NY 10471",New York,Bronx County,The Bronx,40.8968048,-73.9087471
Brokered by COMPASS,Co-op for sale,695000,2,2,2184,575 Park Ave Unit 1101,"Manhattan, NY 10065",New York,New York County,New York,40.7651716,-73.9678719
Brokered by Ilite Realty Inc,Co-op for sale,459000,3,2,1250,2475 W 16th St Apt 19H,"Brooklyn, NY 11214",United States,New York,Kings County,40.5866482,-73.9845156
Brokered by Winzone Realty Inc,Co-op for sale,425000,3,2,1405,58-03 Calloway St Unit 2P2,"Corona, NY 11368",United States,New York,Queens County,40.7381853,-73.8581248
Brokered by Byson Real Estate Company - Byson Real Estate Company,Co-op for sale,1525000,2,2,2184,67 Riverside Dr Apt 1C,"New York, NY 10024",New York,New York County,New York,40.784623,-73.9826586
Brokered by COMPASS,Co-op for sale,695000,2,2,2184,575 Park Ave Unit 1101,"Manhattan, NY 10065",New York,New York County,New York,40.7651716,-73.9678719
Brokered by Sotheby's International Realty - Downtown Manhattan,Co-op for sale,269000,1,1,2184,4901 Henry Hudson Pkwy W Apt 5F,"Bronx, NY 10471",New York,Bronx County,The Bronx,40.8968048,-73.9087471
Brokered by Winzone Realty Inc,Co-op for sale,425000,3,2,1405,58-03 Calloway St Unit 2P2,"Corona, NY 11368",United States,New York,Queens County,40.7381853,-73.8581248
Brokered by Queens Quality Management,Co-op for sale,358000,2,1,2184,212-79 16 Ave Unit 183,"Bayside, NY 11360",New York,Queens County,Queens,40.7855174,-73.7797613
Brokered by COMPASS,Co-op for sale,975000,3,1,2184,360 W 22nd St Apt 9J,"Manhattan, NY 10011",New York,New York County,New York,40.7455051,-74.0016003
Brokered by Pride Estates,Co-op for sale,498000,2,1,975,138 71st St Apt E10,"Brooklyn, NY 11209",New York,Kings County,Brooklyn,40.6351164,-74.0311609
Brokered by Laffey Real Estate,Co-op for sale,385000,1,2,900,1805 215th St Apt 4S,"Bayside, NY 11360",New York,Queens County,Queens,40.7839299,-73.77643
Brokered by COMPASS,Co-op for sale,399000,1,1,2184,34-41 85th St Unit 3U,"Jackson Heights, NY 11372",New York,Queens County,Queens,40.7531191,-73.8818757
Brokered by Daniel Gale Sotheby's International Realty,Co-op for sale,1088000,5,2,2184,20 Continental Ave Unit 5EF,"Forest Hills, NY 11375",New York,Queens County,Queens,40.7186003,-73.8453488
Brokered by NextHome Residential,Co-op for sale,265000,1,1,700,23-45 Bell Blvd Unit 5K,"Bayside, NY 11360",New York,Queens County,Queens,40.7824499,-73.7765099
"Brokered by MAXIMILLION REALTY, INC.",Co-op for sale,288000,1,1,845,3901 Nostrand Ave Apt 4C,"Brooklyn, NY 11235",New York,Kings County,Brooklyn,40.5894827,-73.9395372
Brokered by COMPASS,Co-op for sale,999995,3,2,1750,205 E 63rd St Unit 11EF,"Manhattan, NY 10065",New York,New York County,New York,40.7640501,-73.964336
Brokered by Corcoran East Side,Co-op for sale,1495000,2,2,1350,200 E 74th St Apt 6B,"New York, NY 10021",New York,New York County,New York,40.7708195,-73.9595235
Brokered by Corcoran Park Avenue South,Co-op for sale,925000,1,1,1000,235 E 73rd St # 4B,"New York, NY 10021",New York,New York County,New York,40.7699425,-73.9583558
Brokered by Realty Connect USA LLC,Co-op for sale,349000,2,1,2184,84-70 129 St N Unit 5U,"Kew Gardens, NY 11415",New York,Queens County,Queens,40.7050355,-73.8241699
Brokered by Platinum Properties of Long Island,Co-op for sale,329000,1,1,820,111-39 76th Rd Unit E6,"Forest Hills, NY 11375",New York,Queens County,Queens,40.7157399,-73.83672
Brokered by Keller Williams Realty Liberty,Co-op for sale,439500,3,2,1400,83-80 118th St Unit 3O,"Kew Gardens, NY 11415",New York,Queens County,Queens,40.7047878,-73.8344551
Brokered by Prime Properties Long Island,Co-op for sale,299000,1,1,2184,118-18 Union Tpke Unit 17G,"Kew Gardens, NY 11415",New York,Queens County,Queens,40.7123992,-73.8339305
Brokered by Oxford Property Group,Co-op for sale,425000,3,1,2184,504 W 135th St Apt 1B,"New York, NY 10031",New York,New York County,New York,40.8189893,-73.953108
Brokered by BESMATCH REAL ESTATE,Co-op for sale,69000,1,1,850,1185 Anderson Ave Apt 2E,"Bronx, NY 10452",New York,Bronx County,The Bronx,40.8366623,-73.9239586
Brokered by COMPASS,Co-op for sale,230000,1,1,620,255 W 108th St Apt 1F,"Manhattan, NY 10025",New York,New York County,New York,40.8028416,-73.9670229
Brokered by Crifasi Real Estate Inc,Co-op for sale,220000,1,1,590,82-35 134th St Unit 2D,"Briarwood, NY 11435",New York,Queens County,Queens,40.7130136,-73.8230375
Brokered by E Realty International Corp,Co-op for sale,198000,3,1,2184,42-40 Bowne St Unit 6F,"Flushing, NY 11355",New York,Queens County,Queens,40.756144,-73.8213672
Brokered by Brown Harris Stevens - 445 Park Avenue,Co-op for sale,1495000,1,2,2184,48 Gramercy Park N Apt 1B,"Manhattan, NY 10010",New York,New York County,New York,40.7382884,-73.9851838
Brokered by Corcoran West Side,Co-op for sale,475000,1,1,615,520 E 90th St Apt 1L,"New York, NY 10128",New York,New York County,New York,40.7779975,-73.9445342
Brokered by Rad Marketing Corp,Co-op for sale,199900,2,1,2184,234-04 131 Ave Unit 2,"Rosedale, NY 11422",New York,Queens County,Queens,40.6779049,-73.733881
Brokered by KELLER WILLIAMS REALTY LANDMARK II,Co-op for sale,229000,1,1,2184,33-05 92nd St Unit 1B,"Jackson Heights, NY 11372",New York,Queens County,Queens,40.7562792,-73.8758052
Brokered by RE MAX Edge,Co-op for sale,295000,2,1,700,1275 E 5th St Apt 6A,"Brooklyn, NY 11230",New York,Kings County,Brooklyn,40.6196386,-73.9707307
Brokered by Voro Llc,Co-op for sale,328000,1,1,800,83-30 Vietor Ave Unit 414,"Elmhurst, NY 11373",New York,Queens County,Queens,40.743059,-73.880983
Brokered by Corcoran Park Slope,Co-op for sale,849000,2,1,800,299 13th St Apt 3D,"Brooklyn, NY 11215",New York,Kings County,Brooklyn,40.6662599,-73.9870141
Brokered by HOULIHAN LAWRENCE - LaGrangeville,Co-op for sale,560000,3,1,550,165 W End Ave Apt 16C,"New York, NY 10023",New York,New York County,New York,40.777244,-73.9868738
Brokered by Corcoran Park Slope,Co-op for sale,849000,2,1,800,299 13th St Apt 3D,"Brooklyn, NY 11215",New York,Kings County,Brooklyn,40.6662599,-73.9870141
Brokered by RE MAX Elite,Co-op for sale,418888,2,1,900,946 59th St Apt 4B,"Brooklyn, NY 11219",New York,Kings County,Brooklyn,40.6339124,-74.0058434
Brokered by Sbny Re,Co-op for sale,199000,1,1,2184,67-38 108 St Unit D5,"Forest Hills, NY 11375",New York,Queens County,Queens,40.7282899,-73.8472
"Brokered by CLAS - Classic Marketing, LLC",Co-op for sale,1465000,3,3,2184,215 E 73rd St Unit 4A,"New York, NY 10021",New York,New York County,New York,40.7701914,-73.9590118
Brokered by Brown Harris Stevens - 445 Park Avenue,Co-op for sale,3950000,3,3,2184,2 Sutton Pl S Apt 19F,"Manhattan, NY 10022",New York,New York County,New York,40.7573949,-73.9606545
Brokered by Corcoran Brooklyn Heights,Co-op for sale,370000,1,1,2184,100 Remsen St Apt 3F,"Brooklyn, NY 11201",New York,Kings County,Brooklyn,40.6939582,-73.9943695
Brokered by Douglas Elliman - 575 Madison Ave,Co-op for sale,3649000,3,2,2184,11 W 30th St Apt 11F,"New York, NY 10001",New York,New York County,New York,40.7464683,-73.9872992
Brokered by Douglas Elliman - 187 Seventh Ave,Co-op for sale,259000,1,1,750,3500 Snyder Ave Apt 5N,"Brooklyn, NY 11203",New York,Kings County,Brooklyn,40.6491203,-73.9440658
Brokered by Douglas Elliman - 1410 Cortelyou Rd,Co-op for sale,535000,1,1,750,192 E 8th St Apt 1C,"Brooklyn, NY 11218",New York,Kings County,Brooklyn,40.6453011,-73.9723049
Brokered by Douglas Elliman - 575 Madison Ave,Co-op for sale,1200000,3,2,2184,955 Lexington Ave Unit 5C,"New York, NY 10021",New York,New York County,New York,40.7687538,-73.9631311
Brokered by CHRISTIE'S INT.REAL ESTATE GROUP,Co-op for sale,1300000,2,2,2184,269 W 87th St Apt 6C,"New York, NY 10024",New York,New York County,New York,40.7895034,-73.9769713
Brokered by Steven Corcoran Real Estate LLC - Steven Corcoran Real Estate TudorCity.com,Co-op for sale,339000,3,1,250,314 E 41st St Apt 303B,"New York, NY 10017",New York,New York County,New York,40.7488879,-73.9723947
Brokered by Douglas Elliman - 575 Madison Ave,Co-op for sale,1799995,2,2,2184,207 E 74th St Unit 8M,"New York, NY 10021",New York,New York County,New York,40.7708932,-73.9586258
Brokered by EXP Realty,Co-op for sale,459000,2,1,950,142-05 Roosevelt Ave Unit 435,"Flushing, NY 11354",New York,Queens County,Queens,40.7607942,-73.8258766
Brokered by Corcoran SoHo,Co-op for sale,400000,2,2,1150,8 Magnolia Pl # 8,"Bronx, NY 10465",United States,New York,Bronx County,40.8131429,-73.808397
"Brokered by Bizzarro Agency, LLC",Co-op for sale,105000,3,1,656,2191 Bolton St Apt 5E,"Bronx, NY 10462",New York,Bronx County,The Bronx,40.8560699,-73.8688751
Brokered by NY Home Ventures,Co-op for sale,202000,2,1,1453,18-70 211 St Unit 2A,"Bayside, NY 11360",New York,Queens County,Queens,40.7802813,-73.7818912
Brokered by Douglas Elliman - 237 Smith St,Co-op for sale,599000,3,1,1200,7901 4th Ave Apt F7,"Brooklyn, NY 11209",New York,Kings County,Brooklyn,40.6279352,-74.0260154
Brokered by Douglas Elliman - Franklin Square,Co-op for sale,319000,3,1,960,58-42 251st St Unit 190,"Little Neck, NY 11362",United States,New York,Queens County,40.7598591,-73.7290086
"Brokered by Robert E. Hill, Inc.",Co-op for sale,105509,1,1,650,60 Knolls Cres Apt 8F,"Bronx, NY 10463",New York,Bronx County,The Bronx,40.879078,-73.9175196
Brokered by Ooakb&F Inc,Co-op for sale,395995,2,1,1100,5601 Riverdale Ave Apt 2B,"Bronx, NY 10471",New York,Bronx County,The Bronx,40.9048823,-73.9051113
Brokered by Douglas Elliman - 1995 Broadway,Co-op for sale,1649000,2,2,2184,165 W End Ave Apt 7N,"New York, NY 10023",New York,New York County,New York,40.777244,-73.9868738
Brokered by EXP Realty,Co-op for sale,365000,2,1,2184,83-40 Austin St Unit 3E,"Kew Gardens, NY 11415",New York,Queens County,Queens,40.7083799,-73.8290102
Brokered by Corcoran SoHo,Co-op for sale,149000,3,1,400,87 Saint Marks Pl Apt 4C,"New York, NY 10009",New York,New York County,New York,40.7276196,-73.9848906
NoBroker,Co-op for sale,235000,3,2,1400,143-50 Hoover Ave Unit 307,"Jamaica, NY 11435",New York,Queens County,Queens,40.7142299,-73.8152
Brokered by Berkshire Hathaway HomeServices New York Properties - Eastchester,Co-op for sale,215000,2,2,747,127C Edgewater Park Unit C,"Bronx, NY 10465",United States,New York,Bronx County,40.8233271,-73.8110122
Brokered by Signature Premier Properties,Co-op for sale,275000,2,1,900,1910 Pelham Pkwy S Apt 2A,"Bronx, NY 10461",New York,Bronx County,The Bronx,40.8554764,-73.8287193
"Brokered by Century 21 Amiable Realty Group II, Inc.",Co-op for sale,295000,3,1,2184,155-23 79th St Unit 2,"Howard Beach, NY 11414",New York,Queens County,Queens,40.6633466,-73.8542803
Brokered by Berkshire Hathaway HomeServices New York Properties - Scarsdale,Co-op for sale,159000,2,1,1010,3531 Bronxwood Ave Apt Stb,"Bronx, NY 10469",United States,New York,Bronx County,40.8762047,-73.8603621
Brokered by Morris Park Realty Group,Co-op for sale,49500,3,2,800,150 City Island Ave Unit E3,"Bronx, NY 10464",New York,Bronx County,The Bronx,40.8432844,-73.7846028
Brokered by Keller Williams Realty Liberty,Co-op for sale,259500,2,1,2184,123-35 82nd Rd Unit 5H,"Kew Gardens, NY 11415",New York,Queens County,Queens,40.7121373,-73.8277084
Brokered by COMPASS,Co-op for sale,449500,1,1,2184,180 Thompson St Apt Ld,"Manhattan, NY 10012",United States,New York,New York County,40.7278952,-73.9998294
Brokered by Llk Homes Realty Inc.,Co-op for sale,209000,1,1,1078,4410 Cayuga Ave Unit B3,"Bronx, NY 10471",New York,Bronx County,The Bronx,40.8915963,-73.8989828
Brokered by COMPASS,Co-op for sale,280000,3,2,1100,1506 Overing St Unit STR3,"Bronx, NY 10461",New York,Bronx County,The Bronx,40.8409736,-73.8456248
Brokered by Sotheby's International Realty - Downtown Manhattan,Co-op for sale,275000,3,1,2184,419 E 87th St Apt 3A,"New York, NY 10128",New York,New York County,New York,40.7772579,-73.9476695
Brokered by COMPASS,Co-op for sale,235000,3,1,2184,133 Beach 120th St Apt 2E,"Queens, NY 11694",New York,Queens County,Queens,40.576751,-73.8398387
Brokered by Madison Estates Sotheby's International Realty,Co-op for sale,215000,3,1,1100,1075 Ocean Pkwy Apt 1C,"Brooklyn, NY 11230",New York,Kings County,Brooklyn,40.622324,-73.9695073
Brokered by GANG JASON A,Co-op for sale,270000,2,2,900,33-05 92nd St Unit 1C,"Jackson Heights, NY 11372",New York,Queens County,Queens,40.7562792,-73.8758052
Brokered by Douglas Elliman - 3544 Johnson Ave,Co-op for sale,375000,2,2,1200,3635 Johnson Ave Apt 3G,"Bronx, NY 10463",New York,Bronx County,The Bronx,40.8876529,-73.909649
Brokered by Corcoran SoHo,Co-op for sale,565000,1,1,2184,78 8th Ave Apt 2K,"Brooklyn, NY 11215",New York,Kings County,Brooklyn,40.6733809,-73.9732475
Brokered by Exit Alliance Realty,Co-op for sale,199000,2,1,2184,8900 170th St Apt 7D,"Jamaica, NY 11432",New York,Queens County,Queens,40.7092156,-73.7912209
Brokered by RE MAX Real Estate Professionals,Co-op for sale,300000,2,1,900,350 Richmond Ter Apt 3C,"Staten Island, NY 10301",New York,Richmond County,Staten Island,40.6479387,-74.0852701
Brokered by Corcoran Long Island City,Co-op for sale,350000,2,1,825,274 S 2nd St Apt 30,"Brooklyn, NY 11211",New York,Kings County,Brooklyn,40.711175,-73.957086
Brokered by Apple Realty Group Corp,Co-op for sale,278500,2,1,2184,65-38 Booth St Unit 6E,"Rego Park, NY 11374",New York,Queens County,Queens,40.7267837,-73.8587799
Brokered by COMPASS,Co-op for sale,738000,3,2,2184,303 E 57th St Apt 39A,"Manhattan, NY 10022",New York,New York County,New York,40.7595774,-73.964779
Brokered by Re/Max Elite,Co-op for sale,369000,1,1,1470,12310 Ocean Promenade Apt 7H,"Rockaway Park, NY 11694",New York,Queens County,Queens,40.5756358,-73.8423199
Brokered by Magic Of Great Neck Realty Inc,Co-op for sale,1095000,4,4,2500,27110 Grand Central Pkwy Ph F,"Floral Park, NY 11005",United States,New York,Queens County,40.7564761,-73.7212008
Brokered by Douglas Elliman - 3544 Johnson Ave,Co-op for sale,375000,2,2,1350,4601 Henry Hudson Pkwy W Apt A8,"Bronx, NY 10471",New York,Bronx County,The Bronx,40.8938465,-73.9091368
Brokered by O Kane Realty,Co-op for sale,549000,2,2,1200,69-10 108 St Unit 6O,"Forest Hills, NY 11375",New York,Queens County,Queens,40.724514,-73.8458441
Brokered by Top Nest Inc,Co-op for sale,219000,3,1,1050,2229 Knapp St Apt 2A,"Brooklyn, NY 11229",New York,Kings County,Brooklyn,40.5988908,-73.9334675
Brokered by R Jaundoo Realty Llc,Co-op for sale,298000,3,2,1100,1425 Thieriot Ave Apt 6L,"Bronx, NY 10460",New York,Bronx County,The Bronx,40.8363242,-73.8654755
Brokered by Sotheby's International Realty - Downtown Manhattan,Co-op for sale,775000,3,1,2184,46 Commerce St # 5,"New York, NY 10014",New York,New York County,New York,40.7313539,-74.0050572
Brokered by Corcoran Brooklyn Heights,Co-op for sale,410000,1,1,2184,8701 Shore Rd Apt 435,"Brooklyn, NY 11209",New York,Kings County,Brooklyn,40.6249201,-74.0404698
Brokered by Douglas Elliman - Bayside,Co-op for sale,325000,2,1,2184,67-12 Yellowstone Blvd Unit B1,"Forest Hills, NY 11375",New York,Queens County,Queens,40.7280894,-73.8494828
Brokered by Mjr Real Estate Llc,Co-op for sale,568888,3,2,1100,98-05 63 Rd Unit 4E,"Rego Park, NY 11374",United States,New York,Queens County,40.7322223,-73.8588845
NoBroker,Co-op for sale,299000,3,1,2184,2212 Brigham St Apt 3C,"Brooklyn, NY 11229",New York,Kings County,Brooklyn,40.5987787,-73.9350489
Brokered by Realty Executives Today,Co-op for sale,259000,2,1,2184,84-25 118 St Unit 1B,"Kew Gardens, NY 11418",New York,Queens County,Queens,40.7041499,-73.83371
Brokered by Sbny Re,Co-op for sale,425000,2,1,2184,70-25 Yellowstone Blvd Unit 14X,"Forest Hills, NY 11375",New York,Queens County,Queens,40.7226099,-73.8495
Brokered by Adcny Realty Corp,Co-op for sale,185000,2,1,600,526 W 158th St Apt 64,"New York, NY 10032",New York,New York County,New York,40.833945,-73.9432359
Brokered by Realty Executives Today,Co-op for sale,259000,2,1,2184,84-25 118 St Unit 1B,"Kew Gardens, NY 11418",New York,Queens County,Queens,40.7041499,-73.83371
Brokered by Charles Rutenberg Realty Inc,Co-op for sale,419000,2,1,2184,150-58 Jewel Ave Unit 75A,"Flushing, NY 11367",New York,Queens County,Queens,40.7312799,-73.8192399
Brokered by BHHS New York Properties,Co-op for sale,875000,2,1,2184,20 E 35th St Apt 3D,"New York, NY 10016",New York,New York County,New York,40.748098,-73.9824791
Brokered by EBMG LLC,Co-op for sale,219000,2,1,2184,8377 Woodhaven Blvd Apt 2B,"Woodhaven, NY 11421",New York,Queens County,Queens,40.6999899,-73.8539
Brokered by RE/MAX Opulent,Co-op for sale,120000,2,1,600,2962 Decatur Ave Apt 1C,"Bronx, NY 10458",New York,Bronx County,The Bronx,40.8683656,-73.8832093
Brokered by ERA Insite Realty Services,Co-op for sale,229000,2,1,950,4315 Webster Ave Apt 3L,"Bronx, NY 10470",New York,Bronx County,The Bronx,40.8995193,-73.8623678
"Brokered by Century 21 Amiable Realty Group II, Inc.",Co-op for sale,239000,2,1,798,155-07 86th St Unit 102,"Howard Beach, NY 11414",New York,Queens County,Queens,40.6649999,-73.84857
Brokered by Keller Williams Rlty Landmark,Co-op for sale,369888,2,2,2184,98-120 Queens Blvd Unit 6K,"Rego Park, NY 11374",New York,Queens County,Queens,40.726843,-73.85458
Brokered by Douglas Elliman - 575 Madison Ave,Co-op for sale,500000,2,2,2184,465 Park Ave Unit 34E,"New York, NY 10022",New York,New York County,New York,40.7616461,-73.9701294
"Brokered by Robert E. Hill, Inc.",Co-op for sale,175849,2,1,850,60 Knolls Cres Apt 8M,"Bronx, NY 10463",New York,Bronx County,The Bronx,40.879078,-73.9175196
Brokered by TREBACH REALTY INC,Co-op for sale,1235000,3,2,2184,2501 Palisade Ave Apt D2,"Bronx, NY 10463",New York,Bronx County,The Bronx,40.8799728,-73.9221419
Brokered by City Connections Realty,Co-op for sale,785000,1,1,2184,10 Park Ave Unit 10K,"New York, NY 10016",New York,New York County,New York,40.7473555,-73.9813841
Brokered by Coldwell Banker Reliable Real Estate,Co-op for sale,750000,3,2,1750,870 Riverside Dr Apt 5D,"New York, NY 10032",New York,New York County,New York,40.8368955,-73.9465033
Brokered by COMPASS,Co-op for sale,324000,1,1,2184,35-31 85th St Unit 7F,"Queens, NY 11372",United States,New York,Queens County,40.7512505,-73.8814433
"Brokered by Robert E. Hill, Inc.",Co-op for sale,220000,2,1,850,5620 Netherland Ave Apt 3G,"Bronx, NY 10471",New York,Bronx County,The Bronx,40.9049354,-73.9060897
Brokered by Brown Harris Stevens - 100 Seventh Avenue,Co-op for sale,185000,1,1,2184,789 Macdonough St Apt 4G,"Brooklyn, NY 11233",New York,Kings County,Brooklyn,40.684563,-73.914482
"Brokered by AMERIHOMES REALTY OF NY, INC.",Co-op for sale,250000,2,1,950,2525 W 2nd St Apt 2E,"Brooklyn, NY 11223",New York,Kings County,Brooklyn,40.5875717,-73.9712821
Brokered by Corcoran SoHo,Co-op for sale,299000,3,1,640,410 E 57th St Apt 8B,"New York, NY 10022",New York,New York County,New York,40.7578323,-73.9624557
Brokered by Douglas Elliman - Port Washington,Co-op for sale,299000,2,1,2184,193-15 37 Ave Unit 177,"Flushing, NY 11358",New York,Queens County,Queens,40.7626299,-73.78916
Brokered by New Heights Realty,Co-op for sale,279000,3,1,550,57 Park Terrace Ter W Unit 3F,"New York, NY 10034",New York,New York County,New York,40.8712698,-73.9178529
Brokered by COMPASS,Co-op for sale,17900000,6,4,2184,41 Central Park W Unit 11A,"Manhattan, NY 10023",New York,New York County,New York,40.7713789,-73.9798579
"Brokered by Harlem Lofts Inc.- Harlem Lofts, Inc.",Co-op for sale,149000,1,1,375,219 W 144th St Apt 41,"New York, NY 10030",New York,New York County,New York,40.8213094,-73.9399984
Brokered by Corcoran Westside Columbus,Co-op for sale,260000,2,1,2184,515 W 135th St Apt 4C,"New York, NY 10031",New York,New York County,New York,40.8196151,-73.9532441
Brokered by East Coast Realty Partners,Co-op for sale,220000,1,1,2184,6565 Wetherole St Apt 4O,"Rego Park, NY 11374",New York,Queens County,Queens,40.725937,-73.8572908
Brokered by Charles H. Greenthal Property,Co-op for sale,489000,2,2,1549,26910 Grand Central Pkwy Apt 27G,"Floral Park, NY 11005",New York,Queens County,Queens,40.7577991,-73.7159564
Brokered by RE MAX Voyage,Co-op for sale,315000,1,1,850,35-31 85th St Unit 2M,"Jackson Heights, NY 11372",New York,Queens County,Queens,40.7520799,-73.88188
NoBroker,Co-op for sale,115000,3,1,2184,87-15 165th St Unit 6C,"Jamaica, NY 11432",New York,Queens County,Queens,40.7104509,-73.7982064
Brokered by Lopez Realty Team Inc,Co-op for sale,119000,1,1,650,754 Brady Ave Apt 205,"Bronx, NY 10462",New York,Bronx County,The Bronx,40.8522378,-73.8655788
Brokered by Re/Max In The City,Co-op for sale,309900,2,1,900,679 W 239th St Apt 5J,"Bronx, NY 10463",New York,Bronx County,The Bronx,40.8901764,-73.9146261
Brokered by Keller Williams Realty Group,Co-op for sale,325000,3,1,622,525 W 134th St Apt 2E,"New York, NY 10031",New York,New York County,New York,40.8192151,-73.9544658
Brokered by Myc & Associates Inc,Co-op for sale,1900000,3,2,2200,160 Chambers St Apt 4,"New York, NY 10007",New York,New York County,New York,40.7159669,-74.010573
Brokered by Douglas Elliman - Bayside,Co-op for sale,259000,1,1,2184,72-81 113 St Unit 6K,"Forest Hills, NY 11375",New York,Queens County,Queens,40.7199582,-73.8357232
Brokered by Remax Edge - RE/MAX EDGE,Co-op for sale,825000,2,1,800,14 Prospect Park SW Apt 39,"Brooklyn, NY 11215",New York,Kings County,Brooklyn,40.660279,-73.978949
Brokered by Douglas Elliman - Long Beach,Co-op for sale,1075000,4,2,1800,37-30 83rd St Unit 4EF,"Jackson Heights, NY 11372",New York,Queens County,Queens,40.7487647,-73.8834851
Brokered by Keller Williams City Views,Co-op for sale,109000,1,1,2184,335 E 209th St Apt 4,"Bronx, NY 10467",New York,Bronx County,The Bronx,40.8768714,-73.8742644
Brokered by BHHS New York Properties,Co-op for sale,307000,2,1,960,629 Kappock St Apt 2P,"Bronx, NY 10463",New York,Bronx County,The Bronx,40.8802558,-73.9168342
Brokered by RE MAX Elite,Co-op for sale,675000,2,2,1200,9437 Shore Rd Unit 1A,"Brooklyn, NY 11209",New York,Kings County,Brooklyn,40.6168668,-74.0380928
Brokered by Keller Williams Legendary,Co-op for sale,368000,2,2,2184,18-05 215th St Unit 12H,"Bayside, NY 11360",New York,Queens County,Queens,40.784673,-73.775263
Brokered by Best Service Realty Corp.,Co-op for sale,365000,2,1,2184,37-30 83rd St Unit 2H,"Jackson Heights, NY 11372",New York,Queens County,Queens,40.7493341,-73.8834178
Brokered by Ditommaso Real Estate,Co-op for sale,225000,2,1,789,1100 Clove Rd Apt 2D,"Brooklyn, NY 10301",New York,Richmond County,Staten Island,40.6189484,-74.1071576
Brokered by TREBACH REALTY INC,Co-op for sale,480000,3,2,2184,3901 Independence Ave Apt 2T,"Bronx, NY 10463",New York,Bronx County,The Bronx,40.8890266,-73.9131785
Brokered by New York Residential R E,Co-op for sale,385000,2,1,800,160-34 Cross Island Pkwy Unit 6-202,"Whitestone, NY 11357",New York,Queens County,Queens,40.7865407,-73.8018825
Brokered by Exp Realty,Co-op for sale,325000,2,1,750,129 E 102nd St Apt 5B,"New York, NY 10029",New York,New York County,New York,40.78987,-73.9483335
Brokered by Corcoran Brooklyn Heights,Co-op for sale,699000,1,1,2184,114 Remsen St Apt A,"Brooklyn, NY 11201",United States,New York,Kings County,40.6938368,-73.9941354
Brokered by Joyce Realty,Co-op for sale,249000,2,1,800,12 Edgewater Park Unit B,"Bronx, NY 10465",United States,New York,Bronx County,40.8224877,-73.8109803
"Brokered by Robert E. Hill, Inc.",Co-op for sale,249000,1,1,850,601 Kappock St Apt 3N,"Bronx, NY 10463",New York,Bronx County,The Bronx,40.8789773,-73.916004
Brokered by Keller Williams Realty Liberty,Co-op for sale,228500,1,1,750,123-35 82nd Rd Unit 7U,"Kew Gardens, NY 11415",New York,Queens County,Queens,40.7115099,-73.82872
Brokered by Keller Williams Rlty Landmark,Co-op for sale,305000,2,1,2184,164-11 Willets Point Blvd Unit 2,"Whitestone, NY 11357",New York,Queens County,Queens,40.783465,-73.7990603
Brokered by Elegran Real Estate And Development,Co-op for sale,639000,1,1,2184,45 E End Ave Apt 5E,"New York, NY 10028",New York,New York County,New York,40.77172,-73.9467052
Brokered by Sotheby's International Realty - Downtown Manhattan,Co-op for sale,549000,1,1,2184,535 E 72nd St Apt 4A,"New York, NY 10021",New York,New York County,New York,40.7662222,-73.9516342
Brokered by EXP Realty,Co-op for sale,335000,2,1,745,35-35 82nd St Unit 24,"Jackson Heights, NY 11372",New York,Queens County,Queens,40.7517899,-73.88467
Brokered by TREBACH REALTY INC,Co-op for sale,295000,1,1,2184,3001 Henry Hudson Pkwy Apt 3I,"Bronx, NY 10463",United States,New York,Bronx County,40.883124,-73.9164633
Brokered by Sotheby's International Realty - Downtown Manhattan,Co-op for sale,549000,1,1,2184,535 E 72nd St Apt 4A,"New York, NY 10021",New York,New York County,New York,40.7662222,-73.9516342
Brokered by EXP Realty,Co-op for sale,335000,2,1,745,35-35 82nd St Unit 24,"Jackson Heights, NY 11372",New York,Queens County,Queens,40.7517899,-73.88467
Brokered by TREBACH REALTY INC,Co-op for sale,295000,1,1,2184,3001 Henry Hudson Pkwy Apt 3I,"Bronx, NY 10463",United States,New York,Bronx County,40.883124,-73.9164633
Brokered by COMPASS,Co-op for sale,580000,1,1,2184,305 W 55th St Apt 2A,"Manhattan, NY 10019",New York,New York County,New York,40.7657861,-73.9842196
Brokered by Corcoran East Side,Co-op for sale,887785,2,2,2184,575 Main St Apt 1602,"New York, NY 10044",New York,Queens County,Queens,40.7462427,-73.8259167
Brokered by Brown Harris Stevens,Co-op for sale,999000,2,2,2184,531 Main St Apt 520,"Manhattan, NY 10044",New York,New York County,New York,40.7617289,-73.9502411
Brokered by Keller Williams Realty Greater Nassau,Co-op for sale,188000,3,1,2184,6011 Broadway Apt L5,"Woodside, NY 11377",New York,Queens County,Queens,40.7511899,-73.90201
Brokered by COMPASS,Co-op for sale,545000,1,1,2184,28 W 87th St Apt 4A,"Manhattan, NY 10024",New York,New York County,New York,40.7863158,-73.9702042
Brokered by Sold By Bart R E Partners Inc,Co-op for sale,389000,2,1,2184,62-19 53rd Ave Unit 3P,"Maspeth, NY 11378",New York,Queens County,Queens,40.7317199,-73.90176
Brokered by Homedax Real Estate Llc,Co-op for sale,350000,2,1,2184,414 61st St Apt 4A,"Brooklyn, NY 11220",New York,Kings County,Brooklyn,40.6397364,-74.0186847
Brokered by Homedax Real Estate Llc,Co-op for sale,350000,2,1,2184,414 61st St Apt 4A,"Brooklyn, NY 11220",New York,Kings County,Brooklyn,40.6397364,-74.0186847
Brokered by Ubiq,Co-op for sale,310000,2,1,2184,655 Riverside Dr Apt 5A,"New York, NY 10031",New York,New York County,New York,40.8255972,-73.9529963
Brokered by Brown Harris Stevens,Co-op for sale,479000,1,1,2184,335 W 85th St Apt 4A,"Manhattan, NY 10024",New York,New York County,New York,40.788879,-73.9794905
Brokered by Joyce Realty,Co-op for sale,659000,3,2,1300,3 Edgewater Park Unit 3A,"Bronx, NY 10465",New York,Bronx County,The Bronx,40.8224429,-73.8109606
Brokered by Magic Of Great Neck Realty Inc,Co-op for sale,629000,2,2,1600,27110 Grand Central Pkwy Apt 22N,"Floral Park, NY 11005",New York,Queens County,Queens,40.7564761,-73.7212008
Brokered by NextHome Empire,Co-op for sale,315000,2,1,2184,21-48 35th St Unit 5G,"Astoria, NY 11105",New York,Queens County,Queens,40.7758184,-73.907993
Brokered by Brown Harris Stevens- 3531 Johnson Avenue,Co-op for sale,605000,3,2,1500,2575 Palisade Ave Apt 1L,"Bronx, NY 10463",New York,Bronx County,The Bronx,40.8818819,-73.921791
Brokered by COMPASS,Co-op for sale,550000,2,1,2184,611 41st St Apt L,"Brooklyn, NY 11232",United States,New York,Kings County,40.6487997,-74.0024232
Brokered by RE MAX City Square,Co-op for sale,575000,3,2,1480,3903 Nostrand Ave Apt 5P,"Brooklyn, NY 11235",New York,Kings County,Brooklyn,40.5886056,-73.9394034
Brokered by The Agency,Co-op for sale,525000,3,1,2184,180 W End Ave Apt 19P,"New York, NY 10023",New York,New York County,New York,40.7774246,-73.98562
Brokered by Madison Estates Sotheby's International Realty,Co-op for sale,379000,2,2,1160,3215 Avenue H Apt 3P,"Brooklyn, NY 11210",New York,Kings County,Brooklyn,40.6320616,-73.9452586
Brokered by Fave Realty Inc,Co-op for sale,250000,1,1,900,3017 Riverdale Ave Apt 1F,"Bronx, NY 10463",New York,Bronx County,The Bronx,40.880985,-73.9102329
Brokered by Corcoran East Side,Co-op for sale,1275000,1,1,1000,521 W 47th St Apt 2B,"New York, NY 10036",New York,New York County,New York,40.7635661,-73.9941366
Brokered by COMPASS,Co-op for sale,895000,2,2,2184,202 W 78th St Apt 2E,"Manhattan, NY 10024",New York,New York County,New York,40.7824047,-73.979261
Brokered by The Agency,Co-op for sale,950000,2,1,1000,140 W End Ave Apt 7B,"New York, NY 10023",New York,New York County,New York,40.7759205,-73.9861034
Brokered by Agency Real Estate Services Llc,Co-op for sale,269000,1,1,900,170-40 Highland Ave Unit 404,"Jamaica, NY 11432",New York,Queens County,Queens,40.7125699,-73.79318
Brokered by Garden Square Realty,Co-op for sale,550000,2,1,1069,4 Dartmouth St Apt 71,"Forest Hills, NY 11375",New York,Queens County,Queens,40.7192373,-73.846265
Brokered by Sold By Bart R E Partners Inc,Co-op for sale,330000,3,1,2184,83-20 98th St Unit 1U,"Woodhaven, NY 11421",New York,Queens County,Queens,40.6994276,-73.8518226
Brokered by Nyc Realty Brokers Llc,Co-op for sale,619000,2,2,1200,200 Corbin Pl Apt 5N,"Brooklyn, NY 11235",New York,Kings County,Brooklyn,40.5768871,-73.9542132
Brokered by Brown Harris Stevens - 129 Montague Street,Co-op for sale,800000,2,2,2184,3442 80th St Apt 32,"Queens, NY 11372",New York,Queens County,Queens,40.7535399,-73.8868899
Brokered by RE MAX Edge,Co-op for sale,499000,2,1,686,430 W 46th St Apt 5E,"Manhattan, NY 10036",New York,New York County,New York,40.7615546,-73.9923686
Brokered by ROBERT DEFALCO REALTY INC,Co-op for sale,300000,3,1,1200,2741 E 28th St Apt 4D,"Brooklyn, NY 11235",New York,Kings County,Brooklyn,40.5862693,-73.9407123
Brokered by Re/Max In The City,Co-op for sale,240900,2,1,875,2390 Palisade Ave Apt 4K,"Bronx, NY 10463",New York,Bronx County,The Bronx,40.8797408,-73.9204193
Brokered by Houlihan Lawrence,Co-op for sale,129000,1,1,750,4315 Webster Ave Apt 3J,"Bronx, NY 10470",New York,Bronx County,The Bronx,40.8995193,-73.8623678
Brokered by RE MAX Distinguished Homes & Properties,Co-op for sale,265000,2,1,1100,1750 E 14th St Apt L4,"Brooklyn, NY 11229",New York,Kings County,Brooklyn,40.6068092,-73.9590334
Brokered by Keller Williams NYC,Co-op for sale,262500,1,1,2184,750 Kappock St Apt 502,"Bronx, NY 10463",New York,Bronx County,The Bronx,40.8819467,-73.9200169
Brokered by COMPASS,Co-op for sale,850000,1,1,2184,32 Downing St Apt 2D,"Manhattan, NY 10014",New York,New York County,New York,40.729293,-74.003447
Brokered by COMPASS,Co-op for sale,999000,2,1,1050,215 W 92nd St Apt 5F,"Manhattan, NY 10025",New York,New York County,New York,40.7921116,-73.9731768
Brokered by Yoreevo,Co-op for sale,999000,2,1,2184,139 W 85th St Apt 3,"New York, NY 10024",New York,New York County,New York,40.7866659,-73.974142
Brokered by Sold By Bart R E Partners Inc,Co-op for sale,279000,2,1,2184,84-70 129th St Unit 1V,"Kew Gardens, NY 11415",New York,Queens County,Queens,40.7069299,-73.82404
Brokered by Douglas Elliman  -111 Fifth Ave,Co-op for sale,2300000,2,2,1600,242 E 7th St Unit Ph,"New York, NY 10009",United States,New York,New York County,40.7236159,-73.9781735
Brokered by COMPASS,Co-op for sale,450000,3,2,1026,97-10 62nd Dr Unit 8E,"Rego Park, NY 11374",New York,Queens County,Queens,40.7323502,-73.8611654
Brokered by Bond New York- Columbus Circle,Co-op for sale,999000,3,2,2184,203 W 102nd St Apt 1F,"New York, NY 10025",New York,New York County,New York,40.7982086,-73.9680164
Brokered by E Realty International Corp,Co-op for sale,378000,2,1,2184,150-10 Melbourne Ave Unit 368A,"Flushing, NY 11367",New York,Queens County,Queens,40.7341999,-73.81974
Brokered by O Kane Realty,Co-op for sale,149000,1,1,2184,112-50 Northern Blvd Unit 1E,"Corona, NY 11368",New York,Queens County,Queens,40.7581299,-73.8569399
Brokered by East Coast REALTORS Inc,Co-op for sale,195000,1,1,2184,44-20 Douglaston Pkwy Unit 2G,"Douglaston, NY 11363",New York,Queens County,Queens,40.7659255,-73.7453922
Brokered by Corcoran Chelsea/Flatiron,Co-op for sale,999995,2,1,2184,126 E 12th St Apt 6A,"New York, NY 10003",New York,New York County,New York,40.7321997,-73.9888999
"Brokered by Robert E. Hill, Inc.",Co-op for sale,430000,2,2,1200,2727 Palisade Ave Apt 5B,"Bronx, NY 10463",New York,Bronx County,The Bronx,40.8830657,-73.9206428
NoBroker,Co-op for sale,445000,3,2,2184,138-10 Franklin Ave Unit 1K,"Flushing, NY 11355",New York,Queens County,Queens,40.7547252,-73.8255572
Brokered by Douglas Elliman - 140 Franklin,Co-op for sale,435000,3,1,2184,269 W 72nd St Apt 12D,"New York, NY 10023",New York,New York County,New York,40.7799639,-73.9841598
"Brokered by Compass Greater New York, LLC",Co-op for sale,329000,1,1,750,302 96th St Apt 4L,"Brooklyn, NY 11209",New York,Kings County,Brooklyn,40.61593,-74.0335829
Brokered by ETPG - Eastpointe Properties Group,Co-op for sale,370000,3,1,2184,35 E 30th St Apt 6D,"New York, NY 10016",New York,New York County,New York,40.7450423,-73.9839731
Brokered by Douglas Elliman - 1995 Broadway,Co-op for sale,299000,1,1,2184,318 W 36th St Apt 3A,"New York, NY 10018",New York,New York County,New York,40.7538054,-73.9935323
Brokered by Brown Harris Stevens - 1926 Broadway,Co-op for sale,1395000,3,3,1750,789 W End Ave Unit 1A2,"Manhattan, NY 10025",New York,New York County,New York,40.7971343,-73.9722076
Brokered by Keller Williams NYC,Co-op for sale,495000,1,1,2184,257 W 86th St Unit 8C,"New York, NY 10024",New York,New York County,New York,40.7885633,-73.9767931
Brokered by EXIT REALTY GROUP,Co-op for sale,369000,1,1,900,2400 Johnson Ave Apt 9C,"Bronx, NY 10463",10463,United States,New York,40.8763984,-73.9184692
Brokered by GOLDEN REAL CORP.,Co-op for sale,169000,1,1,680,2821 Kings Hwy Apt 1N,"Brooklyn, NY 11229",New York,Kings County,Brooklyn,40.6150193,-73.9464928
"Brokered by Weichert, Realtors - Larchmont",Co-op for sale,124900,1,1,676,3535 Kings College Pl Apt 3E,"Bronx, NY 10467",New York,Bronx County,The Bronx,40.880833,-73.8758596
Brokered by Exp Realty,Co-op for sale,269000,1,1,2184,21-57 33rd St Unit 5E,"Astoria, NY 11105",New York,Queens County,Queens,40.7759232,-73.9087334
Brokered by COMPASS,Co-op for sale,60000000,8,8,2184,960 5th Ave Unit 12,"Manhattan, NY 10075",New York,New York County,New York,40.7756423,-73.9642465
Brokered by Benjamin Realty Since 1980,Co-op for sale,329000,1,1,2184,6 Burns St Apt 111,"Forest Hills, NY 11375",New York,Queens County,Queens,40.7193051,-73.8453248
Brokered by COMPASS,Co-op for sale,169999,2,1,2184,112-30 Northern Blvd Unit 4G,"Corona, NY 11368",New York,Queens County,Queens,40.7579027,-73.8562374
Brokered by R New York,Co-op for sale,439000,1,1,950,10 Bay Street Lndg Apt 5E,"Staten Island, NY 10301",New York,Richmond County,Staten Island,40.638118,-74.073964
Brokered by B Square Realty,Co-op for sale,448000,3,1,2184,162-31 9th Ave Unit 6B,"Whitestone, NY 11357",New York,Queens County,Queens,40.7932677,-73.7984822
Brokered by Brown Harris Stevens,Co-op for sale,385000,1,1,900,2500 Johnson Ave Apt 12M,"Bronx, NY 10463",New York,Bronx County,The Bronx,40.876794,-73.9177034
Brokered by Douglas Elliman - 3544 Johnson Ave,Co-op for sale,349000,2,1,900,629 Kappock St Apt 4A,"Bronx, NY 10463",New York,Bronx County,The Bronx,40.8802558,-73.9168342
Brokered by Brown Harris Stevens,Co-op for sale,1195000,3,3,995,3001 Henry Hudson West Parkway Pkwy W Unit 1FG,"Bronx, NY 10463",New York,Bronx County,The Bronx,40.8830898,-73.9165737
Brokered by COMPASS,Co-op for sale,1750000,3,3,995,285 Riverside Dr Apt 5B,"Manhattan, NY 10025",New York,New York County,New York,40.7989206,-73.9723967
Brokered by Coldwell Banker M&D Good Life,Co-op for sale,324900,1,1,900,251 Seaman Ave Apt 1C,"New York, NY 10034",New York,New York County,New York,40.8716437,-73.9178483
Brokered by Exit Realty DKC,Co-op for sale,97500,2,1,791,1160 Colgate Ave Apt 1D,"Bronx, NY 10472",New York,Bronx County,The Bronx,40.8279037,-73.881623
Brokered by RE MAX 1st Choice,Co-op for sale,519999,3,2,1100,33-44 93rd St Unit 3S,"Jackson Heights, NY 11372",New York,Queens County,Queens,40.7551143,-73.8752634
Brokered by De Luca Realty Group INC,Co-op for sale,299999,2,1,857,44B Edgewater Park Unit 44B,"Bronx, NY 10465",New York,Bronx County,The Bronx,40.8227774,-73.8084775
Brokered by Keller Williams Points North,Co-op for sale,319000,2,1,925,108-49 63rd Ave Unit 6F,"Forest Hills, NY 11375",New York,Queens County,Queens,40.7355842,-73.8491198
Brokered by Ubiq,Co-op for sale,350000,2,1,2184,655 Riverside Dr Apt 1A,"New York, NY 10031",New York,New York County,New York,40.8255972,-73.9529963
Brokered by CENTURY 21 Homefront,Co-op for sale,255000,1,1,750,464 Neptune Ave Apt 4E,"Brooklyn, NY 11224",New York,Kings County,Brooklyn,40.5792324,-73.9713245
Brokered by CENTURY 21 Future Homes Realty,Co-op for sale,190000,2,1,875,3065 Sedgwick Ave Apt 3E,"Bronx, NY 10468",New York,Bronx County,The Bronx,40.8766081,-73.8998497
Brokered by Houlihan Lawrence,Co-op for sale,149999,1,1,850,4295 Webster Ave Apt 4B,"Bronx, NY 10470",New York,Bronx County,The Bronx,40.8992144,-73.8624103
Brokered by New York Residential R E,Co-op for sale,208000,1,1,610,159-04 16th Ave Unit 6-68,"Whitestone, NY 11357",New York,New York County,New York,40.7398044,-73.9980373
Brokered by Douglas Elliman - New Hyde Park,Co-op for sale,310000,2,1,675,247-16A 76 Ave Unit 1FL,"Bellerose, NY 11426",New York,Queens County,Queens,40.7444053,-73.7237661
Brokered by Miller & Miller Real Estate,Co-op for sale,239900,1,1,585,71-27 260th St Unit A2,"Glen Oaks, NY 11004",New York,Queens County,Queens,40.7516659,-73.7183001
Brokered by Tworealestate Llc,Co-op for sale,257000,3,1,450,40 Brighton 1st Rd Apt 11D,"Brooklyn, NY 11235",New York,Kings County,Brooklyn,40.5756277,-73.9667833
Brokered by CENTURY 21 Galvez,Co-op for sale,340000,2,1,900,6035 Broadway Apt 6N,"Bronx, NY 10471",New York,Bronx County,The Bronx,40.8919476,-73.8973687
Brokered by COMPASS,Co-op for sale,775000,3,2,1880,175 E 62nd St Apt 14A,"Manhattan, NY 10065",New York,New York County,New York,40.7636632,-73.9655082
Brokered by CENTURY 21 Galvez,Co-op for sale,340000,2,1,900,6035 Broadway Apt 6N,"Bronx, NY 10471",New York,Bronx County,The Bronx,40.8919476,-73.8973687
Brokered by Douglas Elliman - 1995 Broadway,Co-op for sale,699000,1,1,600,170 W 74th St Apt 607,"New York, NY 10023",New York,New York County,New York,40.7794608,-73.979919
Brokered by COMPASS,Co-op for sale,2250000,4,3,2184,225 Central Park W Unit 422423,"Manhattan, NY 10024",United States,New York,New York County,40.7830893,-73.9713177
Brokered by COMPASS,Co-op for sale,319000,3,1,2184,36 W 138th St Apt 51,"Manhattan, NY 10037",New York,New York County,New York,40.8153009,-73.9380717
Brokered by Corcoran West Side Gallery,Co-op for sale,399000,1,1,2184,521 E 81st St Apt 4C,"New York, NY 10028",New York,New York County,New York,40.7723985,-73.9482206
Brokered by Corcoran Brooklyn Heights,Co-op for sale,625000,3,1,652,28 Old Fulton St Apt 6M,"Brooklyn, NY 11201",Kings County,Brooklyn,Brooklyn Heights,40.702334,-73.9937463
Brokered by Mjr Real Estate Llc,Co-op for sale,269000,1,1,700,97-37 63 Rd Unit 5F,"Rego Park, NY 11374",New York,Queens County,Queens,40.7318958,-73.8599645
Brokered by COMPASS,Co-op for sale,550000,3,2,1250,2041 5th Ave Apt 2B,"Manhattan, NY 10035",New York,New York County,New York,40.8071957,-73.941821
Brokered by COMPASS,Co-op for sale,359000,1,1,2184,229 E 81st St Unit Gh,"Manhattan, NY 10028",United States,New York,New York County,40.7751786,-73.9550168
Brokered by Exp Realty,Co-op for sale,134500,3,1,503,601 Kappock St Apt 1G,"Bronx, NY 10463",New York,Bronx County,The Bronx,40.8789773,-73.916004
Brokered by Voro Llc,Co-op for sale,278999,1,1,2184,5811 251st St Unit Upper,"Little Neck, NY 11362",United States,New York,Queens County,40.7601741,-73.728329
Brokered by COMPASS,Co-op for sale,225000,3,1,2184,11 St Nicholas Ave Unit 4D,"Manhattan, NY 10026",New York,New York County,New York,40.7992319,-73.9526079
Brokered by Century Homes Realty Group LLC,Co-op for sale,259000,1,1,2184,37-30 73 St Unit 1H,"Jackson Heights, NY 11372",New York,Queens County,Queens,40.7488599,-73.8926999
"Brokered by LandSeAir Real Estate Group, Inc - Bronx Little Italy Office",Co-op for sale,119888,1,1,2184,112-50 Northern Blvd Unit 5E,"Corona, NY 11368",New York,Queens County,Queens,40.7582228,-73.8559216
Brokered by Bright Horizons Realty Inc,Co-op for sale,315000,2,1,850,5640 Avenue T Unit 84F,"Brooklyn, NY 11234",New York,Kings County,Brooklyn,40.6142504,-73.9196974
Brokered by Century 21 Realty First,Co-op for sale,659000,1,1,440,202 Baltic St Unit 1,"Brooklyn, NY 11201",New York,Kings County,Brooklyn,40.6867525,-73.996485
Brokered by Legacy Estate Realty,Co-op for sale,398000,3,2,1571,170-40 Highland Ave Unit 107,"Jamaica, NY 11432",New York,Queens County,Queens,40.7125699,-73.79318
Brokered by New Heights Realty,Co-op for sale,249000,3,1,500,100 Park Terrace Ter W Unit 1H,"New York, NY 10034",New York,New York County,New York,40.8717961,-73.916064
Brokered by Exp Realty,Co-op for sale,320000,1,1,2184,2 Dartmouth St Apt M28,"Forest Hills, NY 11375",United States,New York,Queens County,40.7192438,-73.8499268
Brokered by Keller Williams Realty Greater Nassau,Co-op for sale,719000,3,2,1440,110-11 72nd Ave Unit 4B,"Forest Hills, NY 11375",New York,Queens County,Queens,40.721289,-73.8403901
Brokered by COMPASS,Co-op for sale,265000,1,1,2184,1777 Madison Ave Apt 32,"Manhattan, NY 10035",New York,New York County,New York,40.8003865,-73.9443376
Brokered by Floral Homes Inc,Co-op for sale,325000,2,1,2184,268-25 82nd Ave Unit 279B,"New Hyde Park, NY 11040",New York,Queens County,Queens,40.7427699,-73.70245
Brokered by TREBACH REALTY INC,Co-op for sale,325000,2,2,2184,3875 Waldo Ave Apt 2E,"Bronx, NY 10463",New York,Bronx County,The Bronx,40.8890553,-73.9033819
Brokered by Douglas Elliman  -111 Fifth Ave,Co-op for sale,1395000,2,1,2184,258 Broadway Apt 3D,"New York, NY 10007",New York,New York County,New York,40.7134524,-74.0070904
Brokered by Keller Williams NYC,Co-op for sale,680000,1,1,2184,299 Henry St Unit D1,"Brooklyn, NY 11201",New York,Kings County,Brooklyn,40.6915357,-73.9956516
Brokered by RE MAX Edge,Co-op for sale,258888,1,1,650,9031 Fort Hamilton Pkwy Apt 6C,"Brooklyn, NY 11209",New York,Kings County,Brooklyn,40.617279,-74.0267532
Brokered by Douglas Elliman - 575 Madison Ave,Co-op for sale,300000,1,1,2184,315 E 77th St Apt 4D,"New York, NY 10075",New York,New York County,New York,40.7719231,-73.955157
Brokered by COMPASS,Co-op for sale,330000,1,2,2184,303 E 57th St Apt 19B,"Manhattan, NY 10022",New York,New York County,New York,40.7595774,-73.964779
Brokered by COMPASS,Co-op for sale,875000,1,1,2184,15 W 72nd St Apt 5T,"Manhattan, NY 10023",New York,New York County,New York,40.7769649,-73.9769247
Brokered by COMPASS,Co-op for sale,385000,2,2,1100,640 W 231st St Apt 7C,"Bronx, NY 10463",New York,Bronx County,The Bronx,40.8827696,-73.9148245
Brokered by Douglas Elliman - 1995 Broadway,Co-op for sale,985000,3,2,2184,84-12 35th Ave Unit 4C,"Queens, NY 11372",Queens County,Queens,Jackson Heights,40.7518439,-73.8822788
Brokered by Belle Harbor Realty,Co-op for sale,349000,1,1,1017,13811 Beach Channel Dr Unit 8C,"Brooklyn, NY 11694",New York,Queens County,Queens,40.5781687,-73.8586706
Brokered by Douglas Elliman  -111 Fifth Ave,Co-op for sale,4995000,4,3,2184,255 W 90th St Apt 9C,"New York, NY 10024",New York,New York County,New York,40.7910972,-73.9748583
Brokered by Century Homes Realty Group LLC,Co-op for sale,210000,2,1,1000,144-55 Melbourne Ave Unit 1H,"Flushing, NY 11367",New York,Queens County,Queens,40.734848,-73.8232512
Brokered by Brown Harris Stevens Forest Hills LLC,Co-op for sale,549000,2,1,2184,110-11 Queens Blvd Unit 6L,"Queens, NY 11375",United States,New York,Queens County,40.7201292,-73.8398387
Brokered by EXIT REALTY FIRST CHOICE,Co-op for sale,299999,2,2,1300,1835 Corporal Kennedy St Apt 2F,"Bayside, NY 11360",New York,Queens County,Queens,40.7808597,-73.7834998
Brokered by Corcoran Park Avenue South,Co-op for sale,1195000,2,2,2184,25 W 13th St Apt 1ON,"New York, NY 10011",New York,New York County,New York,40.7361476,-73.9955368
Brokered by Keller Williams NYC,Co-op for sale,200000,1,1,2184,86-16 60th Ave Unit 2N,"Queens, NY 11373",New York,Queens County,Queens,40.7304899,-73.8735933
Brokered by EXIT REALTY FIRST CHOICE,Co-op for sale,299999,2,2,1300,1835 Corporal Kennedy St Apt 2F,"Bayside, NY 11360",New York,Queens County,Queens,40.7808597,-73.7834998
Brokered by COMPASS,Co-op for sale,1775000,2,2,2184,124 Thompson St Unit 27/28,"Manhattan, NY 10012",New York,New York County,New York,40.7261696,-74.0013901
Brokered by Keller Williams Realty Liberty,Co-op for sale,232500,1,1,2184,123-35 82nd Rd Unit 3R,"Kew Gardens, NY 11415",New York,Queens County,Queens,40.7121373,-73.8277084
Brokered by COMPASS,Co-op for sale,250000,3,1,2184,11 St Nicholas Ave Unit 3E,"Manhattan, NY 10026",New York,New York County,New York,40.7992319,-73.9526079
Brokered by All Area Brokerage Inc,Co-op for sale,430000,2,1,2184,65-15 38th Ave Unit 3D,"Woodside, NY 11377",New York,Queens County,Queens,40.7472542,-73.8978152
Brokered by TUDO - Tudor Realty Services,Co-op for sale,299000,3,1,2184,5 Tudor City Pl Apt 1426,"New York, NY 10017",10017,United States,New York,40.7488491,-73.9716161
Brokered by New Concept Sheiks Realty Inc.,Co-op for sale,279000,3,1,1400,2199 Holland Ave Unit Le,"Bronx, NY 10462",United States,New York,Bronx County,40.8563536,-73.865974
Brokered by qvtopservice,Co-op for sale,100000,3,1,512,1040 Neilson St Apt 3A,"Far Rockaway, NY 11691",New York,Queens County,Queens,40.6042895,-73.7478287
Brokered by Keller Williams Realty Elite,Co-op for sale,299000,1,1,2184,37-20 81st St Unit 2E,"Jackson Heights, NY 11372",New York,Queens County,Queens,40.7490984,-73.8849909
Brokered by Eden7 Realty Inc,Co-op for sale,699999,3,2,2184,1040 Carroll St Unit 6B,"Crown Heights, NY 11213",New York,Kings County,Brooklyn,40.6672186,-73.9566539
Brokered by Keller Williams NYC,Co-op for sale,529000,1,1,2184,301 E 22nd St Apt 2R,"New York, NY 10010",New York,New York County,New York,40.7371253,-73.9806613
Brokered by Ortiz Home Selling Team Llc,Co-op for sale,279900,1,1,900,1020 Grand Concourse Apt 14D,"Bronx, NY 10451",New York,Bronx County,The Bronx,40.8301222,-73.9202611
Brokered by Platzner International Group,Co-op for sale,165000,1,1,875,205 E 238th St Apt 1J,"Bronx, NY 10470",New York,Bronx County,The Bronx,40.8994229,-73.8706379
Brokered by Douglas Elliman - 664 Fulton,Co-op for sale,270000,1,1,2184,2155 82nd St Apt 5O,"Brooklyn, NY 11214",New York,Kings County,Brooklyn,40.6047809,-73.9920476
Brokered by Ortiz Home Selling Team Llc,Co-op for sale,279900,1,1,900,1020 Grand Concourse Apt 14D,"Bronx, NY 10451",New York,Bronx County,The Bronx,40.8301222,-73.9202611
Brokered by Keller Williams NYC,Co-op for sale,269000,2,1,2184,2090 Madison Ave Apt 3D,"New York, NY 10037",New York,New York County,New York,40.8099353,-73.9377818
Brokered by Sotheby's International Realty - Downtown Manhattan,Co-op for sale,499000,2,2,2184,519 E 87th St Apt D,"New York, NY 10128",New York,New York County,New York,40.7762825,-73.9453865
Brokered by CENTURY 21 Homefront,Co-op for sale,245000,2,1,900,2260 Burnett St Apt 1F,"Brooklyn, NY 11229",New York,Kings County,Brooklyn,40.6014996,-73.9324298
Brokered by Brown Harris Stevens,Co-op for sale,425000,3,1,450,410 W 23rd St Apt 6E,"Manhattan, NY 10011",New York,New York County,New York,40.7464807,-74.0018835
Brokered by Dynamik Real Estate,Co-op for sale,3695000,2,2,1697,292 Lafayette St Apt 2E,"Manhattan, NY 10012",New York,New York County,New York,40.7246503,-73.9960912
Brokered by Keystone Realty USA Corp,Co-op for sale,169000,3,1,2184,72-61 113 St Unit 4B,"Forest Hills, NY 11375",New York,Queens County,Queens,40.7205894,-73.8359422
Brokered by BESMATCH REAL ESTATE,Co-op for sale,99000,1,1,850,1177 Anderson Ave Apt 2D,"Bronx, NY 10452",New York,Bronx County,The Bronx,40.83645,-73.924271
Brokered by Brown Harris Stevens- 3531 Johnson Avenue,Co-op for sale,429000,2,2,1450,3515 Henry Hudson Pkwy Apt 3D,"Bronx, NY 10463",Bronx County,The Bronx,Riverdale,40.8868607,-73.9129726
Brokered by Brown Harris Stevens- 3531 Johnson Avenue,Co-op for sale,429000,2,2,1450,3515 Henry Hudson Pkwy Apt 3D,"Bronx, NY 10463",Bronx County,The Bronx,Riverdale,40.8868607,-73.9129726
Brokered by Bedford Brownstone Realty LLC,Co-op for sale,220000,1,1,500,767 Eastern Pkwy Apt 1A,"Brooklyn, NY 11213",New York,Kings County,Brooklyn,40.6699448,-73.9429395
Brokered by Joachim Realty Llc,Co-op for sale,295000,2,1,950,234-18 131st Ave Unit Lower,"Rosedale, NY 11422",United States,New York,Queens County,40.6778447,-73.7335012
Brokered by J. Sikar Realty,Co-op for sale,399000,2,2,1050,2944 W 5th St Apt 19C,"Brooklyn, NY 11224",New York,Kings County,Brooklyn,40.5776924,-73.9737314
Brokered by Exit Realty Private Client,Co-op for sale,219999,2,1,800,3240 Riverdale Ave Apt 4B,"Bronx, NY 10463",New York,Bronx County,The Bronx,40.8833792,-73.907461
Brokered by Corcoran,Co-op for sale,129000,3,1,2184,87-15 165th St Unit 2A,"Jamaica, NY 11432",New York,Queens County,Queens,40.7104509,-73.7982064
Brokered by COMPASS,Co-op for sale,329000,1,1,2184,48-17 42nd St Unit 4B,"Queens, NY 11104",New York,Queens County,Queens,40.739059,-73.9229803
Brokered by Douglas Elliman - Bayside,Co-op for sale,560000,2,2,2184,110-20 71 Ave Unit 330,"Forest Hills, NY 11375",New York,Queens County,Queens,40.7223099,-73.84153
Brokered by Corcoran,Co-op for sale,129000,3,1,2184,87-15 165th St Unit 2A,"Jamaica, NY 11432",New York,Queens County,Queens,40.7104509,-73.7982064
Brokered by NY Empire Real Estate,Co-op for sale,888000,3,2,1600,69-10 108 St Unit 4C,"Forest Hills, NY 11375",New York,Queens County,Queens,40.724514,-73.8458441
Brokered by COMPASS,Co-op for sale,555555,1,1,2184,622 W End Ave Apt 4E,"Manhattan, NY 10024",New York,New York County,New York,40.7914938,-73.9756337
Brokered by Keller Williams Realty Greater Nassau,Co-op for sale,293900,1,1,2184,35-31 85th St Unit 6C,"Jackson Heights, NY 11372",New York,Queens County,Queens,40.7512505,-73.8814433
Brokered by EXP Realty,Co-op for sale,150000,3,1,600,99-10 60 Ave Unit 5L,"Corona, NY 11368",New York,Queens County,Queens,40.7364499,-73.8584826
Brokered by Sotheby's International Realty - East Side Manhattan Brokerage,Co-op for sale,650000,1,1,2184,411 E 57th St Apt 16B,"New York, NY 10022",New York,New York County,New York,40.7582795,-73.9624506
Brokered by Sold By Bart R E Partners Inc,Co-op for sale,250000,2,1,2184,83-55 Woodhaven Blvd Unit 6K,"Woodhaven, NY 11421",New York,Queens County,Queens,40.700309,-73.8535466
Brokered by Re/Max In The City,Co-op for sale,125000,3,1,600,3121 Middletown Rd Apt 1C,"Bronx, NY 10461",New York,Bronx County,The Bronx,40.8455961,-73.8264218
Brokered by COMPASS,Co-op for sale,2200000,3,3,2195,336 Central Park W Apt 3B,"Manhattan, NY 10025",New York,New York County,New York,40.7904197,-73.966175
Brokered by Jane Mosello Real Estate,Co-op for sale,279000,2,2,1050,4320 Van Cortlandt Park E Apt R,"Bronx, NY 10470",United States,New York,Bronx County,40.898666,-73.8738365
Brokered by J. Milo Real Estate Ltd,Co-op for sale,339000,1,1,1085,9437 Shore Rd Apt C8,"Brooklyn, NY 11209",New York,Kings County,Brooklyn,40.6171201,-74.0385203
Brokered by Re/Max In The City,Co-op for sale,189000,1,1,700,6535 Broadway Apt 1G,"Bronx, NY 10471",New York,Bronx County,The Bronx,40.906568,-73.8968047
Brokered by Corcoran East Side,Co-op for sale,48000000,5,2,2184,740 Park Ave # 4 & 5B,"New York, NY 10021",New York,New York County,New York,40.7707516,-73.9645283
Brokered by Brown Harris Stevens - 445 Park Avenue,Co-op for sale,4995000,2,2,2184,14 E 75th St Unit 9D,"Manhattan, NY 10021",New York,New York County,New York,40.7737635,-73.9644574
Brokered by Corcoran West Side,Co-op for sale,385000,1,1,2184,116 Pinehurst Ave Apt B52,"New York, NY 10033",United States,New York,New York County,40.8522694,-73.939181
Brokered by Douglas Elliman - 1995 Broadway,Co-op for sale,175000,3,1,2184,275 Webster Ave Apt 6G,"Brooklyn, NY 11230",New York,Kings County,Brooklyn,40.6329634,-73.9709274
Brokered by Pantiga Group Inc.,Co-op for sale,175000,1,1,800,190 E Mosholu Pkwy S Apt 3B,"Bronx, NY 10458",New York,Bronx County,The Bronx,40.8742949,-73.883753
Brokered by EXP Realty,Co-op for sale,480000,2,1,2184,66-36 Yellowstone Blvd Unit 22B,"Forest Hills, NY 11375",New York,Queens County,Queens,40.7291499,-73.84944
Brokered by eXp Realty BKNY,Co-op for sale,285000,1,1,750,1293 E 5th St Apt 6B,"Brooklyn, NY 11230",New York,Kings County,Brooklyn,40.6195811,-73.9706361
Brokered by Magic Of Great Neck Realty Inc,Co-op for sale,729000,2,2,1700,26910 Grand Central Pkwy Apt 12O,"Floral Park, NY 11005",New York,Queens County,Queens,40.7577991,-73.7159564
Brokered by Douglas Elliman - Bayside,Co-op for sale,199999,1,1,2184,209-10 41st Ave Unit 1F,"Bayside, NY 11361",New York,Queens County,Queens,40.762788,-73.7768814
Brokered by RE/MAX City Square,Co-op for sale,319000,2,1,2184,67-41 Burns St Unit 414,"Forest Hills, NY 11375",New York,Queens County,Queens,40.7230399,-73.85628
Brokered by JWS REALTY GROUP,Co-op for sale,245000,3,1,260,5 Tudor City Pl Apt 1818,"Ny, NY 10017",New York,New York County,New York,40.748134,-73.9708805
Brokered by RE/MAX City Square,Co-op for sale,319000,2,1,2184,67-41 Burns St Unit 414,"Forest Hills, NY 11375",New York,Queens County,Queens,40.7230399,-73.85628
Brokered by Serhant,Co-op for sale,8995000,5,4,5500,38 W 26th St Unit 9TH,"New York, NY 10010",New York,New York County,New York,40.7442721,-73.9907621
Brokered by Jnm & Associates Inc,Co-op for sale,650000,3,1,2184,116 Cambridge Pl Apt 3C,"Brooklyn, NY 11238",New York,Kings County,Brooklyn,40.6837918,-73.9631445
Brokered by TRACEY REAL ESTATE,Co-op for sale,174000,1,1,800,3105 Avenue V Apt 1H,"Brooklyn, NY 11229",New York,Kings County,Brooklyn,40.5997081,-73.9344974
Brokered by Keller Williams Ny Realty,Co-op for sale,170000,2,1,850,3555 Kings College Pl Apt 2G,"Bronx, NY 10467",New York,Bronx County,The Bronx,40.8813916,-73.8757001
Brokered by Corcoran Westside Columbus,Co-op for sale,1295000,2,2,2100,28 Old Fulton St # Thf,"Brooklyn, NY 11201",New York,Kings County,Brooklyn,40.702334,-73.9937463
Brokered by COMPASS,Co-op for sale,465000,2,2,2184,420 E 51st St Apt 10C,"Manhattan, NY 10022",New York,New York County,New York,40.754032,-73.965157
Brokered by Voro Llc,Co-op for sale,298999,2,1,2184,229-17 87th Ave Unit Upper,"Queens Village, NY 11427",United States,New York,Queens County,40.7317712,-73.739171
Brokered by EXIT ALL SEASONS REALTY,Co-op for sale,209900,1,1,780,3845 Shore Pkwy Apt 5H,"Brooklyn, NY 11235",New York,Kings County,Brooklyn,40.586901,-73.932949
Brokered by COMPASS,Co-op for sale,539000,1,1,2184,385 E 18th St Apt 6J,"Brooklyn, NY 11226",New York,Kings County,Brooklyn,40.6419847,-73.9614428
Brokered by Houlihan Lawrence Bronxville,Co-op for sale,199900,1,1,925,55 E 190th St Apt 3,"Bronx, NY 10468",New York,Bronx County,The Bronx,40.863113,-73.8983227
Brokered by COMPASS,Co-op for sale,789000,2,1,2184,400 E 77th St Apt 4E,"Manhattan, NY 10075",New York,New York County,New York,40.7707244,-73.9533267
Brokered by William Raveis Real Estate - Yorktown Heights,Co-op for sale,289999,1,1,830,2550 Independence Ave Apt 3C,"Bronx, NY 10463",New York,Bronx County,The Bronx,40.8799897,-73.919862
Brokered by BHHS New York Properties,Co-op for sale,4050000,4,3,2184,1060 Fifth Ave Unit 3C,"New York, NY 10128",New York,New York County,New York,40.7822029,-73.959633
Brokered by Fillmore Real Estate,Co-op for sale,899000,2,2,1300,9201 Shore Rd Apt C507,"Brooklyn, NY 11209",New York,Kings County,Brooklyn,40.620502,-74.0396973
Brokered by Redfin Real Estate,Co-op for sale,650000,2,1,2184,332 W 101st St Apt 2R,"New York, NY 10025",New York,New York County,New York,40.798761,-73.9721556
Brokered by Flat Rate Realty Of Queens Ltd,Co-op for sale,169000,1,1,850,165-20 Highland Ave Unit 105,"Jamaica, NY 11432",New York,Queens County,Queens,40.7106599,-73.7986899
Brokered by Brown Harris Stvns Forest Hill,Co-op for sale,695000,2,2,2184,35-25 77th St Unit A16,"Jackson Heights, NY 11372",New York,Queens County,Queens,40.7507718,-73.8890157
Brokered by Flat Rate Realty Of Queens Ltd,Co-op for sale,169000,1,1,850,165-20 Highland Ave Unit 105,"Jamaica, NY 11432",New York,Queens County,Queens,40.7106599,-73.7986899
Brokered by Corcoran West Side,Co-op for sale,445000,1,1,2184,25 Tudor City Pl Apt 419,"New York, NY 10017",10017,United States,New York,40.7488491,-73.9716161
Brokered by COMPASS,Co-op for sale,449000,3,1,2184,440 E 56th St Apt 4D,"Manhattan, NY 10022",New York,New York County,New York,40.7568629,-73.9621341
Brokered by Hometown Properties,Co-op for sale,335000,1,1,756,7901 4th Ave Apt E5,"Brooklyn, NY 11209",New York,Kings County,Brooklyn,40.6273371,-74.0262024
Brokered by Geo Real Estate Group Inc,Co-op for sale,375000,1,1,500,240 E 55th St Apt 8E,"New York, NY 10022",New York,New York County,New York,40.7581216,-73.9670704
Brokered by Keller Williams Realty Greater Nassau,Co-op for sale,349000,1,1,800,510 Ocean Pkwy Apt 4D,"Kensington, NY 11218",United States,New York,Kings County,40.6358249,-73.973308
Brokered by Amorelli Realty LLC,Co-op for sale,169000,1,1,2184,21-57 33rd St Unit 5D,"Astoria, NY 11105",New York,Queens County,Queens,40.7759232,-73.9087334
Brokered by Weichert Realtors TMT Group,Co-op for sale,335000,3,2,2184,18-50 211 St Unit 3D,"Bayside, NY 11360",New York,Queens County,Queens,40.7805732,-73.7825806
"Brokered by Compass Greater Ny, Llc",Co-op for sale,549000,3,1,1200,7002 Ridge Blvd Apt D11,"Brooklyn, NY 11209",New York,Kings County,Brooklyn,40.6358323,-74.0291372
Brokered by eXp Realty BKNY,Co-op for sale,445000,3,2,1250,2483 W 16th St Apt 3C,"Brooklyn, NY 11214",United States,New York,Kings County,40.5871907,-73.9840965
Brokered by Keller Williams Rlty Landmark,Co-op for sale,225000,1,1,2184,35-45 204 St Unit 399,"Bayside, NY 11361",New York,Queens County,Queens,40.7664499,-73.78359
Brokered by Level,Co-op for sale,220000,3,1,2184,273 Bennett Ave Apt 6E,"New York, NY 10040",New York,New York County,New York,40.8590729,-73.9322176
Brokered by RE/MAX Team,Co-op for sale,289000,3,1,2184,2199 Holland Ave Apt 5N,"Bronx, NY 10462",New York,Bronx County,The Bronx,40.8563536,-73.865974
Brokered by Pantiga Group Inc.,Co-op for sale,259000,2,1,950,800 Grand Concourse Ave Unit Gjn,"Bronx, NY 10451",United States,New York,Bronx County,40.8248699,-73.9229829
Brokered by Sotheby's International Realty - Downtown Manhattan,Co-op for sale,299000,3,1,2184,579 W 215th St Apt 9D,"New York, NY 10034",New York,New York County,New York,40.8718895,-73.9188667
Brokered by Coldwell Banker American Homes,Co-op for sale,230000,1,1,2184,43-25 Douglaston Pkwy Unit 6D,"Douglaston, NY 11363",New York,Queens County,Queens,40.7670699,-73.74642
Brokered by Brown Harris Stevens - 445 Park Avenue,Co-op for sale,775000,1,1,2184,401 W End Ave Unit 3E,"Manhattan, NY 10024",New York,New York County,New York,40.7845412,-73.981249
Brokered by Coldwell Banker American Homes,Co-op for sale,230000,1,1,2184,43-25 Douglaston Pkwy Unit 6D,"Douglaston, NY 11363",New York,Queens County,Queens,40.7670699,-73.74642
Brokered by Brown Harris Stevens - 445 Park Avenue,Co-op for sale,775000,1,1,2184,401 W End Ave Unit 3E,"Manhattan, NY 10024",New York,New York County,New York,40.7845412,-73.981249
Brokered by COMPASS,Co-op for sale,7495000,6,4,2184,151 E 79th St Fl 11,"Manhattan, NY 10075",New York,New York County,New York,40.775111,-73.958515
Brokered by Brown Harris Stevens,Co-op for sale,192500,1,1,2184,555 Kappock St Apt 12F,"Bronx, NY 10463",New York,Bronx County,The Bronx,40.878087,-73.9170513
Brokered by Gerard R Desgranges,Co-op for sale,395000,1,1,550,170 W 85th St Apt 4NW,"New York, NY 10024",New York,New York County,New York,40.7867652,-73.9753353
Brokered by Bond New York- Columbus Circle,Co-op for sale,699000,2,1,800,7 W 92nd St Apt 5G,"New York, NY 10025",New York,New York County,New York,40.7896573,-73.9673229
Brokered by COMPASS,Co-op for sale,1895000,3,2,2184,378 4th St Apt 4,"Brooklyn, NY 11215",New York,Kings County,Brooklyn,40.6708384,-73.9812037
Brokered by COMPASS,Co-op for sale,1650000,1,2,1000,92 Horatio St Apt 1L,"Manhattan, NY 10014",New York,New York County,New York,40.7385868,-74.0078404
Brokered by Jonarbri Realty,Co-op for sale,385000,2,1,2184,420 44th St Apt 3,"Brooklyn, NY 11220",New York,Kings County,Brooklyn,40.649346,-74.0086998
Brokered by Exp Realty,Co-op for sale,249999,2,1,750,2018 E 59th St Unit 159D,"Old Mill Basin, NY 11234",New York,Kings County,Brooklyn,40.6152328,-73.9176941
Brokered by Howard Hanna Coach Realtors - Floral Park,Co-op for sale,270000,1,1,2184,18-75 Corporal Kennedy St Unit 5J,"Bayside, NY 11360",New York,Queens County,Queens,40.779366,-73.7827644
Brokered by Douglas Elliman - 1995 Broadway,Co-op for sale,395000,3,1,2184,69 W 9th St Apt 4C,"New York, NY 10011",New York,New York County,New York,40.734266,-73.9987024
Brokered by Keller Williams Rlty Landmark,Co-op for sale,329888,3,1,2184,210-15 23 Ave Unit 1,"Bayside, NY 11360",New York,Queens County,Queens,40.7790999,-73.78125
Brokered by Piastro Realty LLC,Co-op for sale,311000,1,1,780,40 Brighton 1 Rd Unit 6B,"Brooklyn, NY 11235",New York,Kings County,Brooklyn,40.5756277,-73.9667833
Brokered by RE MAX Distinguished Homes & Properties,Co-op for sale,159000,1,1,800,2630 Kingsbridge Ter Apt 7Y,"Bronx, NY 10463",New York,Bronx County,The Bronx,40.8697508,-73.905391
Brokered by Desimone Real Estate,Co-op for sale,669000,3,2,1480,3901 Nostrand Ave Apt 6P,"Brooklyn, NY 11235",United States,New York,Kings County,40.5894827,-73.9395372
Brokered by Hometown Properties,Co-op for sale,305000,1,1,750,7259 Shore Rd Apt 3G,"Brooklyn, NY 11209",New York,Kings County,Brooklyn,40.6347271,-74.036817
Brokered by Compass Greater NY LLC,Co-op for sale,599000,3,2,2184,18-15 215 St Unit 2D,"Bayside, NY 11360",New York,Queens County,Queens,40.7839299,-73.77643
Brokered by Berkshire Hathaway HomeServices New York Properties - Eastchester,Co-op for sale,339000,2,2,906,86C Edgewater Park Unit C,"Bronx, NY 10465",United States,New York,Bronx County,40.8224723,-73.81106
Brokered by Brown Harris Stevens,Co-op for sale,565000,1,1,2184,107 W 70th St Apt 4F,"Manhattan, NY 10023",New York,New York County,New York,40.776443,-73.979985
Brokered by Oxford Property Group,Co-op for sale,399000,3,1,2184,36 W 35th St Apt 5D,"New York, NY 10001",New York,New York County,New York,40.7497074,-73.9859244
Brokered by COMPASS,Co-op for sale,895000,2,1,2184,55 E 65th St Apt 4A,"Manhattan, NY 10065",New York,New York County,New York,40.7669715,-73.9674377
Brokered by RE MAX Edge,Co-op for sale,299000,1,1,750,7119 Shore Rd Apt 2C,"Brooklyn, NY 11209",New York,Kings County,Brooklyn,40.636031,-74.0365302
Brokered by EXP Realty,Co-op for sale,279000,2,1,810,196-44 69th Ave Unit 1ST,"Fresh Meadows, NY 11365",New York,Queens County,Queens,40.7365683,-73.7763893
Brokered by Sotheby's International Realty - Downtown Manhattan,Co-op for sale,285000,3,1,2184,417 E 87th St Apt 3B,"New York, NY 10128",New York,New York County,New York,40.7772709,-73.9477614
Brokered by COMPASS,Co-op for sale,735000,1,1,800,205 W 95th St Apt 3B,"Manhattan, NY 10025",New York,New York County,New York,40.7938201,-73.9713411
Brokered by Sotheby's International Realty - Downtown Manhattan,Co-op for sale,2950000,2,2,2184,20 Bond St Apt 2,"New York, NY 10012",New York,New York County,New York,40.7267495,-73.9938034
Brokered by COMPASS,Co-op for sale,899000,2,1,2184,345 W 55th St Apt 6B,"Manhattan, NY 10019",New York,New York County,New York,40.7661581,-73.985324
Brokered by Signature Premier Properties,Co-op for sale,320000,2,2,1200,3121 Middletown Rd Apt 2K,"Bronx, NY 10461",New York,Bronx County,The Bronx,40.8455961,-73.8264218
Brokered by EXP Realty,Co-op for sale,228888,1,1,900,85-15 Main St Unit 7A,"Briarwood, NY 11435",New York,Queens County,Queens,40.7097347,-73.8188287
Brokered by Keller Williams Realty Liberty,Co-op for sale,199888,2,1,2184,151-25 88 St Unit 4E,"Howard Beach, NY 11414",New York,Queens County,Queens,40.667401,-73.8470063
Brokered by Serhant,Co-op for sale,5995000,4,4,2184,110 Franklin St Unit 1,"New York, NY 10013",New York,New York County,New York,40.7187102,-74.005987
Brokered by TRACEY REAL ESTATE,Co-op for sale,699000,2,1,1100,125 Ocean Ave Apt 1J,"Brooklyn, NY 11225",New York,Kings County,Brooklyn,40.6599761,-73.9622977
Brokered by COMPASS,Co-op for sale,2000000,3,2,1800,106 E 85th St Apt 5S,"Manhattan, NY 10028",New York,New York County,New York,40.779073,-73.957175
Brokered by Winzone Realty Inc,Co-op for sale,538888,3,2,1500,23-55 Bell Blvd Unit 6G,"Bayside, NY 11360",New York,Queens County,Queens,40.7807824,-73.7743544
Brokered by Prime Properties Long Island,Co-op for sale,275000,1,1,2184,65-15 Yellowstone Blvd Unit 5H,"Forest Hills, NY 11375",New York,Queens County,Queens,40.7305839,-73.8503144
Brokered by KELLER WILLIAMS REALTY EMPIRE,Co-op for sale,270000,3,1,275,300 8th Ave Apt 1N,"Brooklyn, NY 11215",New York,Kings County,Brooklyn,40.6692346,-73.9765732
Brokered by Howard Hanna | Rand Realty,Co-op for sale,149000,1,1,750,4380 Vireo Ave Apt 6R,"Bronx, NY 10470",New York,Bronx County,The Bronx,40.9010021,-73.8627053
Brokered by De Luca Realty Group INC,Co-op for sale,299999,2,1,863,120B Edgewater Park Unit 120B,"Bronx, NY 10465",New York,Bronx County,The Bronx,40.822441,-73.8110424
Brokered by COMPASS,Co-op for sale,595000,3,2,2184,775 Lafayette Ave Apt 6D,"Brooklyn, NY 11221",New York,Kings County,Brooklyn,40.6912661,-73.9418745
Brokered by Highlite Homes Realty,Co-op for sale,536000,2,2,1200,3671 Hudson Manor Ter Apt 14J,"Bronx, NY 10463",New York,Bronx County,The Bronx,40.8881345,-73.9162336
Brokered by United Realty Associates,Co-op for sale,288000,2,1,2184,47-31 216th St Unit 3B,"Bayside, NY 11361",New York,Queens County,Queens,40.7567043,-73.764352
Brokered by RE MAX Prestige Properties,Co-op for sale,165000,1,1,625,1922 McGraw Ave Apt 6E,"Bronx, NY 10462",New York,Bronx County,The Bronx,40.8344985,-73.8605246
Brokered by EXP Realty,Co-op for sale,269000,1,1,2184,67-66 108th St Unit B68,"Forest Hills, NY 11375",United States,New York,Queens County,40.7272034,-73.8471901
Brokered by The Agency,Co-op for sale,770000,2,1,2184,66 W 84th St Apt 4A,"New York, NY 10024",New York,New York County,New York,40.7849377,-73.9729247
Brokered by Tony & William R E Brotherhood,Co-op for sale,199000,1,1,2184,138-69 Jewel Ave Unit A,"Flushing, NY 11367",New York,Queens County,Queens,40.7288599,-73.82754
Brokered by Charles H. Greenthal Property,Co-op for sale,239000,1,1,801,26910 Grand Central Pkwy Apt 7P,"Floral Park, NY 11005",New York,Queens County,Queens,40.7577991,-73.7159564
Brokered by Corcoran Bedford Stuyvesant,Co-op for sale,549000,1,1,2184,56 Jane St Apt 1B,"New York, NY 10014",New York,New York County,New York,40.7380264,-74.0053843
Brokered by Local Realty,Co-op for sale,155000,3,1,2184,84-50 169 St Unit 519,"Jamaica, NY 11432",New York,Queens County,Queens,40.714825,-73.795696
Brokered by Douglas Elliman - 3544 Johnson Ave,Co-op for sale,349000,2,1,800,773 Eastern Pkwy Apt 2A,"Crown Heights, NY 11213",United States,New York,Kings County,40.6699639,-73.9428018
Brokered by COMPASS,Co-op for sale,825000,2,1,2184,250 W 103rd St Apt 7D,"Manhattan, NY 10025",New York,New York County,New York,40.7991571,-73.9690321
Brokered by COMPASS,Co-op for sale,825000,2,1,2184,250 W 103rd St Apt 7D,"Manhattan, NY 10025",New York,New York County,New York,40.7991571,-73.9690321
Brokered by Douglas Elliman - 3544 Johnson Ave,Co-op for sale,349000,2,1,800,773 Eastern Pkwy Apt 2A,"Crown Heights, NY 11213",United States,New York,Kings County,40.6699639,-73.9428018
"Brokered by Nest Seekers International, Midtown",Co-op for sale,545000,1,1,2184,445 E 86th St Apt 16C,"New York, NY 10028",New York,New York County,New York,40.7763285,-73.9475088
Brokered by BHHS New York Properties,Co-op for sale,1075000,2,2,1250,310 Lexington Ave Unit 10FG,"New York, NY 10016",New York,New York County,New York,40.7487581,-73.9782786
Brokered by Brown Harris Stevens,Co-op for sale,165000,3,1,550,555 Kappock St Apt 5M,"Bronx, NY 10463",New York,Bronx County,The Bronx,40.878087,-73.9170513
Brokered by Charles Rutenberg Realty Inc,Co-op for sale,569000,3,2,2184,6011 Broadway Apt L1,"Woodside, NY 11377",New York,Queens County,Queens,40.7511899,-73.90201
"Brokered by Fillmore Real Estate Fusion Team, INC.",Co-op for sale,183000,1,1,831,2166 Bronx Park E Apt 5J,"Bronx, NY 10462",New York,Bronx County,The Bronx,40.8552565,-73.8693804
Brokered by Douglas Elliman - Long Island City,Co-op for sale,1850000,5,3,3000,107-40 Queens Blvd Ph 1,"Queens, NY 11375",New York,Queens County,Queens,40.7213129,-73.8450098
Brokered by Corcoran East Side,Co-op for sale,2250000,3,2,2025,455 E 51st St # 4A,"New York, NY 10022",New York,New York County,New York,40.7540096,-73.9637466
Brokered by Brown Harris Stevens,Co-op for sale,205000,1,1,1000,3475 Greystone Ave Apt 4C,"Bronx, NY 10463",New York,Bronx County,The Bronx,40.8850075,-73.9070017
Brokered by Sotheby's International Realty - East Side Manhattan Brokerage,Co-op for sale,1195000,1,2,2184,300 E 74th St Apt 22E,"New York, NY 10021",New York,New York County,New York,40.769824,-73.9571759
Brokered by COMPASS,Co-op for sale,575000,3,2,1350,65-10 108th St Unit 3M,"Queens, NY 11375",New York,Queens County,Queens,40.7313424,-73.8489073
Brokered by Brown Harris Stevens,Co-op for sale,399000,1,1,2184,445 E 86th St Apt 3J,"Manhattan, NY 10028",New York,New York County,New York,40.7763285,-73.9475088
Brokered by Daniel Gale Sotheby's International Realty,Co-op for sale,399000,3,2,1492,18-35 Corporal Kennedy St Unit 2K,"Bayside, NY 11360",New York,Queens County,Queens,40.7812699,-73.78434
Brokered by Bond New York- Columbus Circle,Co-op for sale,585000,1,1,2184,136 W 81st St Apt 4F,"New York, NY 10024",New York,New York County,New York,40.7836953,-73.9760584
Brokered by Bond New York- Columbus Circle,Co-op for sale,585000,1,1,2184,136 W 81st St Apt 4F,"New York, NY 10024",New York,New York County,New York,40.7836953,-73.9760584
Brokered by Douglas Elliman - 1995 Broadway,Co-op for sale,395000,3,1,2184,140 W 69th St Apt 106C,"New York, NY 10023",New York,New York County,New York,40.7758661,-73.981473
Brokered by Keller Williams NYC,Co-op for sale,549999,3,1,1020,35-20 82nd St Unit 41,"Queens, NY 11372",New York,Queens County,Queens,40.7517899,-73.88467
Brokered by Corcoran Chelsea/Flatiron,Co-op for sale,365000,1,1,2184,175 Rivington St Apt 1A,"New York, NY 10002",New York,New York County,New York,40.7187352,-73.9847294
Brokered by TREBACH REALTY INC,Co-op for sale,199000,1,1,2184,601 Kappock St Apt 1P,"Bronx, NY 10463",New York,Bronx County,The Bronx,40.8789773,-73.916004
Brokered by Corcoran Chelsea/Flatiron,Co-op for sale,1450000,2,1,2184,79 Perry St # F,"New York, NY 10014",United States,New York,New York County,40.7355671,-74.0044939
Brokered by TDMT - The Development Marketing Team,Co-op for sale,499000,2,1,2184,167 Havemeyer St Apt 8,"Brooklyn, NY 11211",New York,Kings County,Brooklyn,40.7109875,-73.9577649
Brokered by Brown Harris Stevens - 43 North Moore Street,Co-op for sale,639000,3,2,2184,42-22 Ketcham St Unit B8B9,"Queens, NY 11373",United States,New York,Queens County,40.7447145,-73.8835344
Brokered by Corcoran Brooklyn Heights,Co-op for sale,1099000,2,1,2184,143 Lafayette Ave Apt 1A,"Brooklyn, NY 11238",New York,Kings County,Brooklyn,40.6876421,-73.9721671
Brokered by COMPASS,Co-op for sale,475000,3,1,2184,41 Jane St Apt 4C,"Manhattan, NY 10014",New York,New York County,New York,40.7383084,-74.0046097
Brokered by EXP Realty,Co-op for sale,409000,2,1,2184,69-60 108th St Unit 501,"Forest Hills, NY 11375",New York,Queens County,Queens,40.7236399,-73.84481
Brokered by COMPASS,Co-op for sale,285000,3,1,2184,45 Tudor City Pl Apt 708,"Manhattan, NY 10017",New York,New York County,New York,40.7489931,-73.97025
Brokered by Realty Executives Metro Garden,Co-op for sale,435000,2,1,925,66-15 Thornton Pl Unit 3N,"Rego Park, NY 11374",United States,New York,Queens County,40.7232542,-73.8576166
Brokered by Corcoran Westside Columbus,Co-op for sale,220000,2,1,922,3245 Perry Ave Apt 1F,"Bronx, NY 10467",New York,Bronx County,The Bronx,40.8758111,-73.8765929
Brokered by Douglas Elliman - 690 Washington,Co-op for sale,3300000,2,2,2184,6 E 68th St Apt 2,"New York, NY 10065",New York,New York County,New York,40.769433,-73.9683331
Brokered by qvtopservice,Co-op for sale,135000,1,1,792,1040 Neilson St Apt 2H,"Far Rockaway, NY 11691",New York,Queens County,Queens,40.6030799,-73.74755
Brokered by E Realty International Corp,Co-op for sale,468000,2,1,1200,88-11 Elmhurst Ave Unit C11,"Elmhurst, NY 11373",New York,Queens County,Queens,40.7455899,-73.8778899
Brokered by Realty Connect USA LLC,Co-op for sale,318000,1,1,748,40-40 203rd St Unit 5B,"Bayside, NY 11361",New York,Queens County,Queens,40.7604949,-73.7815883
Brokered by Corcoran SoHo,Co-op for sale,3345000,4,4,3000,151 W 86th St Apt 3D,"New York, NY 10024",New York,New York County,New York,40.7875112,-73.9739349
Brokered by BHHS New York Properties,Co-op for sale,899000,1,2,2184,41 W 96th St Unit 9D,"New York, NY 10025",New York,New York County,New York,40.7926602,-73.9663357
Brokered by Corcoran East Side,Co-op for sale,1995000,2,2,1200,40 W 67th St Apt 8B,"New York, NY 10023",New York,New York County,New York,40.773416,-73.979787
Brokered by Douglas Elliman - 140 Franklin,Co-op for sale,1295000,2,1,2184,156 Bank St Apt 1A,"New York, NY 10014",New York,New York County,New York,40.7359888,-74.0091474
Brokered by Corcoran East Side,Co-op for sale,1995000,2,2,1200,40 W 67th St Apt 8B,"New York, NY 10023",New York,New York County,New York,40.773416,-73.979787
Brokered by BRISMAN REALTY,Co-op for sale,319999,1,1,660,1717 E 14th St Unit 2H,"Brooklyn, NY 11229",New York,Kings County,Brooklyn,40.6077014,-73.958782
Brokered by Showcase Realty Inc,Co-op for sale,475000,1,1,950,35-24 78 St Unit A67,"Jackson Heights, NY 11372",New York,Queens County,Queens,40.75054,-73.8885096
Brokered by Serhant,Co-op for sale,399000,3,1,2184,530 E 84th St Apt 1M,"New York, NY 10028",New York,New York County,New York,40.7738633,-73.9465735
"Brokered by Century 21 Amiable Realty Group II, Inc.",Co-op for sale,225000,1,1,2184,88-08 151 Ave Unit 5A,"Howard Beach, NY 11414",New York,Queens County,Queens,40.6685699,-73.8471189
Brokered by RE/MAX City Square,Co-op for sale,284888,1,1,2184,37-21 80th St Unit 4A,"Jackson Heights, NY 11372",New York,Queens County,Queens,40.748924,-73.8857529
Brokered by Douglas Elliman - 3544 Johnson Ave,Co-op for sale,249000,2,1,900,5550 Fieldston Rd Apt 9J,"Bronx, NY 10471",New York,Bronx County,The Bronx,40.9035132,-73.9002037
Brokered by Corcoran East Side,Co-op for sale,1495000,3,2,1650,215 W 98th St Apt 5C,"New York, NY 10025",New York,New York County,New York,40.7958454,-73.9702391
Brokered by Magic Of Great Neck Realty Inc,Co-op for sale,295000,1,2,980,26910 Grand Central Pkwy Apt 11B,"Floral Park, NY 11005",New York,Queens County,Queens,40.7577991,-73.7159564
Brokered by GOLDEN REAL CORP.,Co-op for sale,289000,1,1,750,3100 Brighton 3rd St Apt 4B,"Brooklyn, NY 11235",New York,Kings County,Brooklyn,40.5764319,-73.9643613
Brokered by R Jaundoo Realty Llc,Co-op for sale,187000,4,1,1076,950 Hoe Ave Apt 2B,"Bronx, NY 10459",New York,Bronx County,The Bronx,40.8224272,-73.8900397
Brokered by Sotheby's International Realty - East Side Manhattan Brokerage,Co-op for sale,3400000,3,3,2184,65 Central Park W Apt 10C,"New York, NY 10023",New York,New York County,New York,40.7727705,-73.9787651
Brokered by All Area Brokerage Inc,Co-op for sale,155000,1,1,2184,87-15 165th St Unit 4J,"Jamaica, NY 11432",New York,Queens County,Queens,40.7104509,-73.7982064
Brokered by One Manhattan real estate - Upper East Side office,Co-op for sale,689000,3,2,1500,31-21 54th St Unit 1H,"Queens, NY 11377",New York,Queens County,Queens,40.7563916,-73.9071359
Brokered by Brown Harris Stevens - 1926 Broadway,Co-op for sale,675000,3,1,2184,1793 Riverside Dr Apt 4F,"Manhattan, NY 10034",New York,New York County,New York,40.8667064,-73.9304963
Brokered by RE MAX City Square,Co-op for sale,260000,1,1,800,2950 Ocean Ave Apt C11,"Brooklyn, NY 11235",New York,Kings County,Brooklyn,40.5892251,-73.94999
"Brokered by Nest Seekers International, Tribeca",Co-op for sale,455000,1,1,725,415 E 85th St Apt 1A,"New York, NY 10028",New York,New York County,New York,40.7760324,-73.9487922
Brokered by Azbel Real Estate Inc,Co-op for sale,475000,2,2,1150,458 Neptune Ave Apt 4C,"Brooklyn, NY 11224",New York,Kings County,Brooklyn,40.5794182,-73.9709078
Brokered by COMPASS,Co-op for sale,209000,1,1,2184,200-18 17th Ave Unit 2-97,"Bayside, NY 11360",New York,Kings County,Brooklyn,40.6456538,-73.9636266
Brokered by RE MAX Elite,Co-op for sale,259000,1,1,625,325 Marine Ave Apt C8,"Brooklyn, NY 11209",New York,Kings County,Brooklyn,40.6147332,-74.0337807
Brokered by Gilbert Perez,Co-op for sale,345000,3,2,1100,6601 Broadway Apt 3A,"Bronx, NY 10471",New York,Bronx County,The Bronx,40.908552,-73.896916
Brokered by Hauseit LLC - Hauseit LLC,Co-op for sale,599000,2,2,1350,4 E 95th St Unit 1B,"New York, NY 10128",New York,New York County,New York,40.7868163,-73.9557515
Brokered by COMPASS,Co-op for sale,1295000,2,2,2184,71 E 77th St Apt 9C,"Manhattan, NY 10075",New York,New York County,New York,40.774576,-73.9624413
Brokered by Hometown Properties,Co-op for sale,188000,3,1,300,460 Ovington Ave Apt 5H,"Brooklyn, NY 11209",New York,Kings County,Brooklyn,40.6327714,-74.022251
Brokered by COMPASS,Co-op for sale,1295000,2,2,2184,71 E 77th St Apt 9C,"Manhattan, NY 10075",New York,New York County,New York,40.774576,-73.9624413
Brokered by COMPASS,Co-op for sale,4400000,3,3,3500,141 W 26th St Apt 2,"Manhattan, NY 10001",New York,New York County,New York,40.7454222,-73.9925061
Brokered by Piastro Realty LLC,Co-op for sale,525000,2,1,1300,50 Brighton 1 Rd Unit 2D,"Brooklyn, NY 11235",New York,Kings County,Brooklyn,40.5751942,-73.9669983
Brokered by Welcome Home R E Sunnyside,Co-op for sale,375000,1,1,2184,39-65 52nd St Unit 5U,"Woodside, NY 11377",New York,Queens County,Queens,40.7467824,-73.9119505
Brokered by COMPASS,Co-op for sale,750000,3,2,2184,35-55 80th St Unit 52,"Queens, NY 11372",New York,Queens County,Queens,40.7515899,-73.8865299
Brokered by COMPASS,Co-op for sale,599000,1,1,755,452 W 50th St Apt 4W,"Manhattan, NY 10019",New York,New York County,New York,40.7643103,-73.9913297
Brokered by EXP Realty,Co-op for sale,338000,1,1,2184,34-40 79th St Unit 1G,"Jackson Heights, NY 11372",New York,Queens County,Queens,40.7522642,-73.8878675
Brokered by Exp Realty,Co-op for sale,339000,1,1,2184,42-30 Douglaston Pkwy Unit 7H,"Douglaston, NY 11363",New York,Queens County,Queens,40.7686099,-73.74772
Brokered by Goldstone N Y Realty Llc,Co-op for sale,219000,1,1,2184,150-25 72nd Rd Unit 1E,"Flushing, NY 11367",United States,New York,Queens County,40.7288351,-73.8169278
Brokered by Douglas Elliman - Bayside,Co-op for sale,439900,2,1,1000,97-37 63rd Rd Unit 4K,"Rego Park, NY 11374",New York,Queens County,Queens,40.7318958,-73.8599645
Brokered by Brown Harris Stevens,Co-op for sale,2850000,3,2,2184,520 Laguardia Pl Apt 7N,"Manhattan, NY 10012",New York,New York County,New York,40.7282135,-73.9990284
Brokered by Queens Quality Management,Co-op for sale,358000,2,1,2184,15-30 212 St Unit 224,"Bayside, NY 11360",New York,Queens County,Queens,40.7856799,-73.7816
Brokered by Benjamin Realty Since 1980,Co-op for sale,299000,1,1,2184,70-31 108th St Unit 5F,"Forest Hills, NY 11375",United States,New York,Queens County,40.7220791,-73.8436959
Brokered by Corcoran Brooklyn Heights,Co-op for sale,650000,2,2,1200,110-20 71st Rd Apt 708,"Queens, NY 11375",New York,Queens County,Queens,40.7216499,-73.84119
Brokered by REAL NEW YORK - Lower East Side,Co-op for sale,589000,2,2,1100,10114 Fourth Ave Unit 22E,"Brooklyn, NY 11209",New York,Kings County,Brooklyn,40.6120095,-74.0345805
Brokered by Coldwell Banker American Homes,Co-op for sale,199000,1,1,2184,150-14 Village Rd Unit 93GC,"Jamaica, NY 11432",New York,Queens County,Queens,40.7166575,-73.8111887
Brokered by Elegran Real Estate And Development,Co-op for sale,1495000,4,4,2600,315 E 65th St Apt 11C,"New York, NY 10065",New York,New York County,New York,40.764197,-73.960624
Brokered by RE MAX Elite,Co-op for sale,239000,3,1,450,9902 3rd Ave Apt 5P,"Brooklyn, NY 11209",New York,Kings County,Brooklyn,40.6141658,-74.0353827
Brokered by Highline Residential - Highline Residential,Co-op for sale,325000,4,1,2184,229 W 144th St Apt 34,"New York, NY 10030",New York,New York County,New York,40.8214364,-73.9403013
Brokered by Douglas Elliman - Roslyn,Co-op for sale,439999,1,2,1215,271-10 Grand Central Pkwy Unit 8O,"Floral Park, NY 11005",New York,Queens County,Queens,40.7564761,-73.7212008
Brokered by Charles H. Greenthal Property,Co-op for sale,234900,1,1,753,26910 Grand Central Pkwy Apt 6M,"Floral Park, NY 11005",New York,Queens County,Queens,40.7577991,-73.7159564
Brokered by Douglas Elliman - 1995 Broadway,Co-op for sale,675000,2,1,2184,35-15 78th St Unit 21,"Queens, NY 11372",New York,Queens County,Queens,40.7513999,-73.88839
Brokered by RE MAX Edge,Co-op for sale,525000,2,1,1000,6801 Shore Rd Apt 4J,"Brooklyn, NY 11220",New York,Kings County,Brooklyn,40.6393755,-74.0352909
Brokered by Keller Williams Rlty Landmark,Co-op for sale,385000,2,2,2184,18-15 215th St Unit 3H,"Bayside, NY 11360",New York,Queens County,Queens,40.7839472,-73.774951
Brokered by Coldwell Banker Reliable Real Estate,Co-op for sale,199000,1,1,2184,21-47 33rd St Unit 1G,"Astoria, NY 11105",New York,Queens County,Queens,40.7771999,-73.9073699
Brokered by Keller Williams Rlty Landmark,Co-op for sale,670000,2,2,2184,17-85 215th St Unit 15N,"Bayside, NY 11360",New York,Queens County,Queens,40.7843012,-73.7761962
Brokered by Horowitz Real Estate,Co-op for sale,305000,2,1,600,21-15 33rd St Unit 5H,"Astoria, NY 11105",New York,Queens County,Queens,40.7767119,-73.9077637
Brokered by Brown Harris Stevens,Co-op for sale,140000,1,1,2184,828 Gerard Ave Apt 4G,"Bronx, NY 10451",New York,Bronx County,The Bronx,40.8260352,-73.9256625
Brokered by EXP Realty,Co-op for sale,279000,1,1,2184,67-38 108th St Unit B22,"Forest Hills, NY 11375",New York,Queens County,Queens,40.7282899,-73.8472
Brokered by Winzone Realty Inc,Co-op for sale,329000,2,1,2184,196-58 67 Ave Unit 2,"Fresh Meadows, NY 11365",United States,New York,Queens County,40.7389649,-73.7774313
NoBroker,Co-op for sale,430000,3,1,2184,2 Tudor City Pl Apt 4OS,"New York, NY 10017",New York,New York County,New York,40.7482797,-73.9715473
Brokered by Brp Associates Inc,Co-op for sale,175000,1,1,800,2232 Brigham St Apt 1J,"Brooklyn, NY 11229",New York,Kings County,Brooklyn,40.5980473,-73.9354323
Brokered by William Raveis Real Estate - Rye,Co-op for sale,136999,1,1,750,2105 Wallace Ave Apt 2F,"Bronx, NY 10462",New York,Bronx County,The Bronx,40.8533818,-73.8651554
Brokered by Brown Harris Stevens,Co-op for sale,329000,1,1,2184,187 Pinehurst Ave Apt 4I,"Manhattan, NY 10033",New York,New York County,New York,40.8544444,-73.9377977
Brokered by Douglas Elliman - 575 Madison Ave,Co-op for sale,825000,1,1,750,132 E 35th St Unit 10L,"New York, NY 10016",New York,New York County,New York,40.7468058,-73.9797483
Brokered by The Agency,Co-op for sale,685000,1,1,2184,225 Lincoln Pl Apt 3G,"Brooklyn, NY 11217",New York,Kings County,Brooklyn,40.6752414,-73.9729777
Brokered by Affordable Realty Corp,Co-op for sale,189000,1,1,2184,87-05 166th St Unit 4H,"Jamaica, NY 11432",New York,Queens County,Queens,40.7109831,-73.7970163
Brokered by RE MAX Edge,Co-op for sale,379000,2,1,1000,1680 Ocean Ave Apt 5L,"Brooklyn, NY 11230",New York,Kings County,Brooklyn,40.6211681,-73.9559582
Brokered by Corcoran Park Avenue South,Co-op for sale,815000,1,1,630,33 E 22nd St Apt 4F,"New York, NY 10010",New York,New York County,New York,40.7400376,-73.9876681
Brokered by Remax Edge - RE/MAX EDGE,Co-op for sale,599000,2,2,1200,321 93rd St Apt 2,"Brooklyn, NY 11209",New York,Kings County,Brooklyn,40.6186895,-74.032363
"Brokered by Charles Rutenberg Realty, Inc.",Co-op for sale,280000,2,2,975,6 Fordham Hill Oval Apt 12G,"Bronx, NY 10468",New York,Bronx County,The Bronx,40.8651305,-73.9068012
Brokered by qvtopservice,Co-op for sale,310000,2,1,2184,68-02 140th St Unit A,"Kew Gardens Hills, NY 11367",United States,New York,Queens County,40.7318363,-73.8270224
Brokered by Daniel Gale Sotheby's International Realty,Co-op for sale,575000,2,2,2184,99-15 66th Ave Unit 5H,"Rego Park, NY 11374",New York,Queens County,Queens,40.7287304,-73.8540818
Brokered by COMPASS,Co-op for sale,850000,1,1,2184,720 Greenwich St Apt 7K,"Manhattan, NY 10014",New York,New York County,New York,40.7343573,-74.0073312
Brokered by Charles H. Greenthal Property,Co-op for sale,309000,1,2,1074,269-10 Grand Central Pkwy Unit 1A,"Floral Park, NY 11005",New York,Queens County,Queens,40.7577974,-73.7159601
Brokered by Douglas Elliman  -111 Fifth Ave,Co-op for sale,999000,3,1,2184,839 W End Ave Apt 2A,"New York, NY 10025",New York,New York County,New York,40.7983784,-73.9712947
Brokered by Brown Harris Stevens,Co-op for sale,399000,3,2,2184,12 E 132nd St Apt 2A,"Manhattan, NY 10037",New York,New York County,New York,40.8102659,-73.9382868
Brokered by Coldwell Banker American Homes,Co-op for sale,225000,1,1,2184,160-30 Cross Island Pkwy Unit 619,"Whitestone, NY 11357",New York,Queens County,Queens,40.7864852,-73.8017612
Brokered by Corcoran Bedford Stuyvesant,Co-op for sale,235000,1,1,2184,118-18 Union Tpke Apt 15E,"Queens, NY 11415",New York,Queens County,Queens,40.7123992,-73.8339305
Brokered by Corcoran Park Avenue South,Co-op for sale,715000,3,1,983,229 E 14th St Apt 3E,"New York, NY 10003",New York,New York County,New York,40.7329326,-73.9858654
Brokered by LoHo Realty Inc,Co-op for sale,565000,2,1,2184,550 Grand St Apt H11E,"New York City, NY 10002",New York,Kings County,Brooklyn,40.7108846,-73.9496434
Brokered by Brown Harris Stevens,Co-op for sale,1200000,2,2,1100,185 Prospect Park SW Apt 304,"Brooklyn, NY 11218",New York,Kings County,Brooklyn,40.6533033,-73.9730719
Brokered by Mirador Real Estate LLC,Co-op for sale,1049000,2,1,2184,376 West St Apt 2B,"New York, NY 10014",New York,New York County,New York,40.7316025,-74.0100989
Brokered by Mirador Real Estate LLC,Co-op for sale,1049000,2,1,2184,376 West St Apt 2B,"New York, NY 10014",New York,New York County,New York,40.7316025,-74.0100989
Brokered by Keller Williams NYC - New York Living Solutions,Co-op for sale,560000,1,1,700,200 E 36th St Apt 17G,"New York, NY 10016",New York,New York County,New York,40.7467649,-73.976998
Brokered by Realty Executives Metro Garden,Co-op for sale,255000,1,1,650,66-36 Yellowstone Blvd Unit 26C,"Forest Hills, NY 11375",New York,Queens County,Queens,40.7291499,-73.84944
Brokered by COMPASS,Co-op for sale,995000,2,2,2184,425 W 24th St Apt 1E,"Manhattan, NY 10011",New York,New York County,New York,40.747844,-74.00189
Brokered by COMPASS,Co-op for sale,995000,2,2,2184,425 W 24th St Apt 1E,"Manhattan, NY 10011",New York,New York County,New York,40.747844,-74.00189
Brokered by Redfin Real Estate,Co-op for sale,569000,2,2,2184,61-15 97th St Unit 14F,"Rego Park, NY 11374",New York,Queens County,Queens,40.7337965,-73.8620837
Brokered by Brown Harris Stevens - 1926 Broadway,Co-op for sale,7195000,3,4,2184,812 Fifth Ave Unit 10A,"Manhattan, NY 10065",New York,New York County,New York,40.7662872,-73.9711965
Brokered by Daniel Gale Sotheby's International Realty,Co-op for sale,398000,3,1,2184,21-77 33rd St Unit 4F,"Astoria, NY 11105",New York,Queens County,Queens,40.7753841,-73.90928
Brokered by Queens Quality Management,Co-op for sale,359000,2,1,2184,16-29 212 St Unit 105,"Bayside, NY 11360",New York,Queens County,Queens,40.7838199,-73.78072
Brokered by COMPASS,Co-op for sale,725000,2,2,2184,35-56 77th St Unit 41,"Queens, NY 11372",New York,Queens County,Queens,40.7512999,-73.88932
Brokered by Keller Williams Rlty Landmark,Co-op for sale,575000,2,1,2184,46-01 39 Ave Unit 514,"Sunnyside, NY 11104",New York,Queens County,Queens,40.7493599,-73.91745
NoBroker,Co-op for sale,239000,1,1,2184,111-31 66th Ave Unit 2C,"Forest Hills, NY 11375",New York,Queens County,Queens,40.7318103,-73.8443526
Brokered by Steven Corcoran Real Estate LLC - Steven Corcoran Real Estate TudorCity.com,Co-op for sale,259000,3,1,250,321 E 43rd St Apt 211,"New York, NY 10017",New York,New York County,New York,40.750236,-73.9707571
Brokered by COMPASS,Co-op for sale,900000,2,2,2184,2166 Broadway Apt 11F,"Manhattan, NY 10024",New York,New York County,New York,40.7819299,-73.9807097
Brokered by RE MAX Edge,Co-op for sale,219000,3,1,550,1119 Ocean Pkwy Unit 1O,"Brooklyn, NY 11230",New York,Kings County,Brooklyn,40.621071,-73.969227
Brokered by Nexthome All Island,Co-op for sale,425000,3,2,1300,61-20 Grand Central Pkwy Unit C505,"Forest Hills, NY 11375",New York,Queens County,Queens,40.7379227,-73.8470718
Brokered by Coldwell Banker Reliable,Co-op for sale,279999,1,1,790,3235 Emmons Ave Apt 412,"Brooklyn, NY 11235",New York,Kings County,Brooklyn,40.5844399,-73.9316116
Brokered by Sotheby's International Realty - Downtown Manhattan,Co-op for sale,1600000,4,2,2350,26 Beaver St Apt 4,"New York, NY 10004",New York,New York County,New York,40.7048255,-74.0118183
Brokered by Douglas Elliman - 140 Franklin,Co-op for sale,640000,2,1,2184,85 First Ave Unit 7B,"New York, NY 10003",10003,United States,New York,40.7301239,-73.9834424
Brokered by Douglas Elliman - 3544 Johnson Ave,Co-op for sale,250000,1,2,740,6300 Riverdale Ave Apt 5K,"Bronx, NY 10471",10471,United States,New York,40.9127295,-73.9022248
Brokered by Julia Shildkret Real Estate,Co-op for sale,309000,1,1,850,66-36 Yellowstone Blvd Unit 14A,"Forest Hills, NY 11375",New York,Queens County,Queens,40.7291499,-73.84944
Brokered by COMPASS,Co-op for sale,400000,3,1,2184,110 Thompson St Apt 3D,"Manhattan, NY 10012",New York,New York County,New York,40.7257358,-74.0017575
Brokered by Keller Williams Valley Realty,Co-op for sale,529000,2,2,1200,4150 78th St Apt 222,"Elmhurst, NY 11373",New York,Queens County,Queens,40.7438826,-73.8873872
Brokered by Sotheby's International Realty - East Side Manhattan Brokerage,Co-op for sale,2250000,2,2,2184,288 W 12th St # 3FR,"New York, NY 10014",New York,New York County,New York,40.7373809,-74.0040989
Brokered by Utopia Real Estate,Co-op for sale,239900,1,1,2184,163-02 17 Ave Unit 1,"Whitestone, NY 11357",United States,New York,Queens County,40.7828417,-73.8000905
Brokered by RE/MAX Team,Co-op for sale,199900,3,1,550,66-36 Yellowstone Blvd Unit 23C,"Forest Hills, NY 11375",New York,Queens County,Queens,40.7291499,-73.84944
Brokered by COMPASS,Co-op for sale,2500000,3,3,2184,336 W End Ave Unit 17AF,"Manhattan, NY 10023",New York,New York County,New York,40.7821377,-73.9824061
Brokered by World Prop Intl Sea To Sky,Co-op for sale,399990,2,1,1000,71-36 110 St Unit 3L,"Forest Hills, NY 11375",New York,Queens County,Queens,40.7213566,-73.8414009
Brokered by Realty Executives Today,Co-op for sale,215000,3,1,625,6333 98th Pl Apt 3L,"Rego Park, NY 11374",Queens County,Queens,Rego Park,40.7318415,-73.8574816
Brokered by RE/MAX Team,Co-op for sale,199900,3,1,550,66-36 Yellowstone Blvd Unit 23C,"Forest Hills, NY 11375",New York,Queens County,Queens,40.7291499,-73.84944
Brokered by Keller Williams Realty NYC Grp,Co-op for sale,130000,1,1,720,2081 Cruger Ave Apt 4C,"Bronx, NY 10462",New York,Bronx County,The Bronx,40.8527259,-73.8670374
Brokered by Keller Williams NYC,Co-op for sale,1195000,3,2,2184,250 W 103rd St Apt 2B,"New York, NY 10025",New York,New York County,New York,40.7992102,-73.9695499
Brokered by COMPASS,Co-op for sale,679000,1,1,2184,200 Cabrini Blvd Apt 117,"Manhattan, NY 10033",New York,New York County,New York,40.853549,-73.9392769
Brokered by Pride Estates,Co-op for sale,185000,2,1,854,2250 Brigham St Apt 3G,"Brooklyn, NY 11229",New York,Kings County,Brooklyn,40.5977235,-73.9352176
Brokered by Douglas Elliman - 1995 Broadway,Co-op for sale,1400000,2,2,2184,201 W 70th St Apt 8C,"New York, NY 10023",New York,New York County,New York,40.7776749,-73.9829506
Brokered by Brown Harris Stevens - 445 Park Avenue,Co-op for sale,599000,2,1,1100,310 Lexington Ave Apt 1F,"Manhattan, NY 10016",New York,New York County,New York,40.7487581,-73.9782786
Brokered by Corcoran SoHo,Co-op for sale,799000,1,1,2184,430 W 34th St Apt 12H,"New York, NY 10001",New York,New York County,New York,40.7536573,-73.9975607
Brokered by Corcoran East Side,Co-op for sale,2700000,2,2,2184,43 Fifth Ave # 8NW,"New York, NY 10003",New York,New York County,New York,40.7340159,-73.9946266
Brokered by Serhant,Co-op for sale,1695000,4,4,2184,55 Liberty St Ph 31A,"New York, NY 10038",New York,New York County,New York,40.7088048,-74.009407
Brokered by Morris Park Realty Group,Co-op for sale,339000,2,1,822,59A Edgewater Park Unit A,"Bronx, NY 10465",United States,New York,Bronx County,40.8224967,-73.8110903
Brokered by Ernest Chi Real Estate LLC,Co-op for sale,425000,3,2,1150,4705 Henry Hudson Pkwy W Apt 7J,"Bronx, NY 10471",New York,Bronx County,The Bronx,40.8952914,-73.9089308
Brokered by Douglas Elliman - 936 Broadway,Co-op for sale,799000,2,2,1000,325 E 41st St Apt 509,"New York, NY 10017",New York,New York County,New York,40.7490288,-73.9719957
Brokered by Corcoran Park Avenue South,Co-op for sale,475000,1,1,750,100 Remsen St Apt 8K,"Brooklyn, NY 11201",New York,Kings County,Brooklyn,40.6939582,-73.9943695
