Broker Title,Type,Price,Bedrooms,Bathrooms,Square Feet,Address,State,Administrative Area Level 2,Locality,Sub-Locality,Latitude,Longitude
Brokered by Charles Rutenberg Realty Inc,Pending,950000,6,2,3384,254-06 Craft Ave Unit 2,"Jamaica, NY 11422",New York,Queens County,Queens,40.6499031,-73.7354706
Brokered by Charles Rutenberg Realty Inc,Pending,739000,6,4,2184,38 Dare Ct,"Brooklyn, NY 11229",United States,New York,Kings County,40.5877991,-73.9216187
Brokered by Corcoran Chelsea/Flatiron,Pending,299999,3,1,2184,215 W 75th St Apt 4D,"New York, NY 10023",New York,New York County,New York,40.7810583,-73.9808407
NoBroker,Pending,4800000,6,2,3958,1151 83rd St,"Brooklyn, NY 11228",United States,New York,Kings County,40.6178184,-74.0151165
Brokered by HOT HOMES REALTY LLC.,Pending,90000,1,1,660,16 Mapleton Ave,"Staten Island, NY 10306",United States,New York,Richmond County,40.574451,-74.0929448
Brokered by E House Realty & Mgt. Inc.,Pending,769000,3,4,2184,290 Lake Ave,"Staten Island, NY 10303",United States,New York,Richmond County,40.6291962,-74.1518654
Brokered by Douglas Elliman - Franklin Square,Pending,668000,3,2,1606,88-08 Gettysburg St,"Bellerose, NY 11426",United States,New York,Queens County,40.7299787,-73.7310756
Brokered by J. Milo Real Estate Ltd,Pending,879900,3,2,2242,640 Sheldon Ave,"Staten Island, NY 10312",United States,New York,Richmond County,40.5409077,-74.1964937
Brokered by Corcoran SoHo,Pending,748999,3,2,1620,122 North Dr,"Staten Island, NY 10305",United States,New York,Richmond County,40.606691,-74.0724094
Brokered by GLASHEN REALTY GROUP INC,Pending,675000,3,2,2184,558 E 34th St,"Brooklyn, NY 11203",United States,New York,Kings County,40.6428139,-73.9451438
Brokered by Corcoran Chelsea/Flatiron,Pending,13500000,5,7,2184,112 Waverly Pl,"New York, NY 10011",United States,New York,New York County,40.7323524,-73.9993358
Brokered by RE MAX Edge,Pending,1188000,4,2,3840,139 Atlantic Ave,"Staten Island, NY 10304",United States,New York,Richmond County,40.5929709,-74.0937822
Brokered by All American Realty Management,Pending,184888,3,1,500,2902745 35 98th St Unit 15A,"Queens, NY 11374",New York,Queens County,Queens,40.7343409,-73.859014
Brokered by Corcoran Brooklyn Heights,Pending,5895000,8,5,6312,219 Frost St,"Brooklyn, NY 11211",United States,New York,Kings County,40.7185648,-73.9422548
Brokered by KELLER WILLIAMS REALTY LANDMARK II,Pending,309000,3,2,2184,151-40 88 St Unit 5J,"Howard Beach, NY 11414",New York,Queens County,Queens,40.6674344,-73.8479327
Brokered by Corcoran Brooklyn Heights,Pending,529900,1,1,630,175 Adams St Apt 10E,"Brooklyn, NY 11201",New York,Kings County,Brooklyn,40.6985714,-73.9881911
Brokered by Prime Realty,Pending,999000,5,2,2184,59-14 69th St,"Maspeth, NY 11378",United States,New York,Queens County,40.7227469,-73.8941061
Brokered by Keller Williams Points North,Pending,659900,3,4,2184,216-10 17th Ave Unit TH53,"Bayside, NY 11360",New York,Queens County,Queens,40.7855084,-73.7762312
Brokered by Corcoran East Side,Pending,1075000,2,2,955,313 W 118th St Apt 3D,"New York, NY 10026",New York,New York County,New York,40.8061576,-73.9550949
Brokered by Corcoran Park Slope,Pending,1695000,2,2,1572,633 Prospect Pl Apt 1,"Brooklyn, NY 11216",New York,Kings County,Brooklyn,40.6750114,-73.9554645
Brokered by Brown Harris Stevens,Pending,1600000,2,2,1100,159 W 24th St Apt 5B,"Manhattan, NY 10011",New York,New York County,New York,40.7448219,-73.9944632
Brokered by Douglas Elliman - Bayside,Pending,1199000,5,4,2184,116 Audley St,"Kew Gardens, NY 11415",United States,New York,Queens County,40.7090268,-73.8335998
Brokered by Ditommaso Real Estate,Pending,499000,3,1,1176,161 Greenleaf Ave,"Staten Island, NY 10310",United States,New York,Richmond County,40.6265387,-74.1263932
Brokered by Corcoran Park Avenue South,Pending,700000,2,1,2184,248 E 7th St # 9/10,"New York, NY 10009",United States,New York,New York County,40.7235651,-73.9781799
Brokered by Wolf Properties Inc,Pending,2500000,3,2,2184,32 Village Rd N,"Brooklyn, NY 11223",United States,New York,Kings County,40.5938747,-73.9742907
Brokered by Wolf Properties Inc,Pending,2500000,3,2,2184,30 Village Rd N,"Brooklyn, NY 11223",United States,New York,Kings County,40.5938803,-73.9743763
Brokered by Corcoran SoHo,Pending,990000,2,2,960,253 Tompkins Ave Apt 4B,"Brooklyn, NY 11216",New York,Kings County,Brooklyn,40.6900217,-73.945006
Brokered by RE MAX Edge,Pending,679000,3,2,1474,3719 Mermaid Ave Unit 2B,"Brooklyn, NY 11224",New York,Kings County,Brooklyn,40.574905,-74.0036857
Brokered by Ardebili Michael,Pending,599000,4,2,1348,1527 Gillespie Ave Unit 1A,"Bronx, NY 10461",New York,Bronx County,The Bronx,40.84296,-73.8312695
Brokered by Douglas Elliman - Garden City,Pending,1149000,5,4,2169,48 Highland Pl,"Brooklyn, NY 11208",United States,New York,Kings County,40.6841571,-73.8820567
Brokered by Blue Sky Realty Group LLC,Pending,500000,5,3,2472,1158 54th St,"Brooklyn, NY 11219",United States,New York,Kings County,40.6339137,-73.9982004
Brokered by Douglas Elliman - 575 Madison Ave,Pending,1495000,1,1,814,9 Dekalb Ave Unit 55D,"Brooklyn, NY 11201",New York,Kings County,Brooklyn,40.6903851,-73.9825343
Brokered by RE MAX Real Estate Professionals,Pending,2288000,4,3,1788,1024 82nd St,"Brooklyn, NY 11228",United States,New York,Kings County,40.6197363,-74.0177331
Brokered by Ideal Properties Realty,Pending,3850000,8,6,6200,1121 E 22nd St,"Brooklyn, NY 11210",United States,New York,Kings County,40.62481,-73.9539607
Brokered by Signature Premier Properties,Pending,294000,1,2,1074,26910 Grand Central Pkwy Apt 15A,"Floral Park, NY 11005",New York,Queens County,Queens,40.7577991,-73.7159564
Brokered by ProBase Real Estate,Pending,958000,3,2,2259,50 Tyndale St,"Staten Island, NY 10312",United States,New York,Richmond County,40.5292852,-74.1685622
"Brokered by Compass Greater New York, LLC",Pending,4999999,4,4,4342,8002 Harbor View Ter,"Brooklyn, NY 11209",United States,New York,Kings County,40.6301693,-74.0384351
Brokered by Corcoran East Side,Pending,800000,3,2,2184,1433 E 105th St,"Brooklyn, NY 11236",United States,New York,Kings County,40.6388264,-73.8846089
Brokered by Keller Williams Rlty Landmark,Pending,539000,1,1,725,207-07 Estates Dr Unit 1,"Bayside, NY 11360",New York,Queens County,Queens,40.7865988,-73.7862803
Brokered by Douglas Elliman  -111 Fifth Ave,Pending,1500000,5,7,4384,815 Riverside Dr,"New York, NY 10032",United States,New York,New York County,40.8354875,-73.9459545
Brokered by COMPASS REALTY CENTRAL INC,Pending,1250000,6,4,2184,318 Brighton St,"Staten Island, NY 10307",United States,New York,Richmond County,40.5022937,-74.2429452
Brokered by Pride Estates,Pending,172800,1,1,750,2010 E 58th St Unit 120B,"Brooklyn, NY 11234",New York,Kings County,Brooklyn,40.6149015,-73.9185548
Brokered by RE MAX Edge,Pending,1149000,7,4,3617,1949 Benedict Ave,"Bronx, NY 10462",United States,New York,Bronx County,40.8343858,-73.8590313
Brokered by Keller Williams Realty Liberty,Pending,1399000,5,4,2184,84-26 87th St,"Woodhaven, NY 11421",United States,New York,Queens County,40.6960034,-73.8584205
Brokered by Keller Williams Realty Liberty,Pending,1399000,5,4,2184,84-26 87th St,"Woodhaven, NY 11421",United States,New York,Queens County,40.6960034,-73.8584205
Brokered by Corcoran Brooklyn Heights,Pending,599999,2,2,2184,2601 E 24th St Apt 3B,"Brooklyn, NY 11235",New York,Kings County,Brooklyn,40.5887895,-73.9452357
Brokered by Douglas Elliman - Bayside,Pending,485000,6,3,2184,1311 Needham Ave,"Bronx, NY 10469",United States,New York,Bronx County,40.8781862,-73.8523657
Brokered by Brooklyn4U Rltyof DykerHeights,Pending,2300000,6,2,4346,490 Jansen St,"Staten Island, NY 10312",United States,New York,Richmond County,40.5274146,-74.179841
Brokered by Corcoran Park Slope,Pending,1800000,7,4,2832,729 E 18th St,"Brooklyn, NY 11230",United States,New York,Kings County,40.6331671,-73.9597006
Brokered by Brooklyn4U Rltyof DykerHeights,Pending,2300000,6,2,4346,490 Jansen St,"Staten Island, NY 10312",United States,New York,Richmond County,40.5274146,-74.179841
Brokered by Corcoran Park Slope,Pending,1800000,7,4,2832,729 E 18th St,"Brooklyn, NY 11230",United States,New York,Kings County,40.6331671,-73.9597006
Brokered by COMPASS,Pending,7500000,3,4,3050,329 Vanderbilt Ave,"Brooklyn, NY 11205",United States,New York,Kings County,40.6883185,-73.9686154
Brokered by Keller Williams Rlty Landmark,Pending,1970000,4,4,3111,303 Knollwood Ave,"Douglaston, NY 11363",United States,New York,Queens County,40.7800183,-73.7514697
Brokered by Jamie & Connie Real Estate Grp,Pending,3100000,4,2,3600,145-38 3rd Ave,"Whitestone, NY 11357",United States,New York,Queens County,40.7956412,-73.8246757
Brokered by Corcoran Bedford Stuyvesant,Pending,349750,1,1,2184,483 17th St # 2L,"Brooklyn, NY 11215",New York,Kings County,Brooklyn,40.6585622,-73.9825211
Brokered by CHIN - Re/Max in The City,Pending,324900,2,2,1100,5715 Mosholu Ave Apt 6B,"Bronx, NY 10471",New York,Bronx County,The Bronx,40.9057959,-73.90002
Brokered by CHIN - Re/Max in The City,Pending,324900,2,2,1100,5715 Mosholu Ave Apt 6B,"Bronx, NY 10471",New York,Bronx County,The Bronx,40.9057959,-73.90002
"Brokered by SBRW - SBROWNRE,LLC",Pending,850000,2,1,775,236 E 6th St Apt 3W,"New York, NY 10003",New York,New York County,New York,40.7274335,-73.9892241
Brokered by COMPASS,Pending,499000,1,1,615,265 W 131st St Apt 5,"Manhattan, NY 10027",New York,New York County,New York,40.8138919,-73.9476673
Brokered by COMPASS,Pending,1299000,4,2,1456,100 W 119th St Apt 3A,"Manhattan, NY 10026",New York,New York County,New York,40.8040587,-73.9487622
Brokered by COMPASS,Pending,395000,3,2,381,192 Water St Ste C,"Brooklyn, NY 11201",New York,Kings County,Brooklyn,40.7028922,-73.9860614
Brokered by COMPASS,Pending,395000,3,2,381,192 Water St Ste C,"Brooklyn, NY 11201",New York,Kings County,Brooklyn,40.7028922,-73.9860614
Brokered by Keller Williams Legendary,Pending,999888,4,2,1900,29-31 159th St,"Flushing, NY 11358",United States,New York,Queens County,40.7701584,-73.8052147
Brokered by Douglas Elliman - 2112 Frederick Douglass Blvd,Pending,110000,1,1,650,6535 Broadway Apt 3G,"Bronx, NY 10471",New York,Bronx County,The Bronx,40.906568,-73.8968047
Brokered by KELLER WILLIAMS REALTY LANDMARK II,Pending,299999,2,1,650,124-21 Flatlands Ave Unit 8B,"Brooklyn, NY 11208",New York,Kings County,Brooklyn,40.657696,-73.8764091
Brokered by RE MAX Elite,Pending,999000,4,2,1957,121 86th St,"Brooklyn, NY 11209",United States,New York,Kings County,40.6248041,-74.0355778
Brokered by Corcoran SoHo,Pending,350000,1,1,2184,2088 Madison Ave Apt 1A,"New York, NY 10037",New York,New York County,New York,40.8099146,-73.9379084
Brokered by BERKSHIRE HATHAWAY,Pending,750000,4,3,2184,116-46 233rd St,"Cambria Heights, NY 11411",United States,New York,Queens County,40.6921975,-73.7287999
Brokered by EXIT REALTY PRIME,Pending,779000,5,3,2000,193-06 122nd Ave,"Jamaica, NY 11413",United States,New York,Queens County,40.6857875,-73.7538304
Brokered by Douglas Elliman - 3544 Johnson Ave,Pending,1780000,4,3,2184,735 Ladd Rd,"Bronx, NY 10471",United States,New York,Bronx County,40.9055018,-73.909935
Brokered by Madison Estates Sotheby's International Realty,Pending,2499000,6,2,4500,1694 54th St,"Brooklyn, NY 11204",United States,New York,Kings County,40.6266809,-73.9862742
Brokered by EXP Realty,Pending,555000,3,1,1504,80-07 Margaret Pl,"Glendale, NY 11385",United States,New York,Queens County,40.7058612,-73.8565972
Brokered by Sotheby's International Realty - Downtown Manhattan,Pending,998000,3,2,1600,309 E 108th St Apt 2B,"New York, NY 10029",New York,New York County,New York,40.7917785,-73.9406204
Brokered by Brown Harris Stevens,Pending,345000,2,1,975,3135 Johnson Ave Apt 10F,"Bronx, NY 10463",New York,Bronx County,The Bronx,40.8828679,-73.9112962
Brokered by LINCOLN V WALTERS II REALTY CORP,Pending,875000,6,2,2340,2729 Westervelt Ave,"Bronx, NY 10469",United States,New York,Bronx County,40.8661368,-73.8400914
"Brokered by Robert Defalco Realty, Inc.",Pending,1245000,4,3,2388,44 Summit Ave,"Staten Island, NY 10306",10306,United States,New York,40.5771597,-74.123973
"Brokered by JOHN A MAGUIRE REAL ESTATE, LL",Pending,695000,2,2,1200,8701 Shore Rd Apt 344,"Brooklyn, NY 11209",New York,Kings County,Brooklyn,40.6249201,-74.0404698
Brokered by RE MAX Edge,Pending,464998,2,2,1657,2650 Ocean Pkwy Apt 10P,"Brooklyn, NY 11235",New York,Kings County,Brooklyn,40.5855624,-73.9669734
Brokered by RE MAX Edge,Pending,464998,2,2,1657,2650 Ocean Pkwy Apt 10P,"Brooklyn, NY 11235",New York,Kings County,Brooklyn,40.5855624,-73.9669734
Brokered by Momentum Real Estate Llc,Pending,699000,3,2,864,319 Montreal Ave,"Staten Island, NY 10306",United States,New York,Richmond County,40.5594124,-74.1258541
Brokered by Ben Bay Rlty Of Marine Pk Llc,Pending,1488000,2,2,1464,1119 85th St,"Brooklyn, NY 11228",United States,New York,Kings County,40.6171732,-74.0169489
Brokered by Bergen Basin Realty Llc,Pending,699000,4,4,1619,1379 E 93rd St,"Brooklyn, NY 11236",United States,New York,Kings County,40.6376197,-73.898975
Brokered by Douglas Elliman - Central Nassau,Pending,400000,2,1,2184,280 Dean St Apt 23,"Brooklyn, NY 11217",New York,Kings County,Brooklyn,40.684191,-73.982522
Brokered by Oxford Property Group,Pending,799000,3,1,1200,177 W 83rd St Apt 4S,"New York, NY 10024",New York,New York County,New York,40.7856899,-73.976047
Brokered by Amorelli Realty LLC,Pending,875000,3,2,2184,24-47 43rd St,"Astoria, NY 11103",United States,New York,Queens County,40.7671317,-73.9087817
Brokered by RE/MAX Team,Pending,988000,2,2,2451,165-15 Cross Island Pkwy,"Whitestone, NY 11357",United States,New York,Queens County,40.7864686,-73.7971724
Brokered by EXP Realty,Pending,670000,1,2,908,112-01 Queens Blvd Unit 21A,"Forest Hills, NY 11375",New York,Queens County,Queens,40.718793,-73.8365852
Brokered by Keller Williams Rlty Landmark,Pending,498888,1,1,750,12-05 Estates Ln Unit 231-1,"Bayside, NY 11360",New York,Queens County,Queens,40.788818,-73.7867657
"Brokered by BEN BAY REALTY, CO.",Pending,1299000,4,2,2080,79 73rd St,"Brooklyn, NY 11209",United States,New York,Kings County,40.6347105,-74.0342611
Brokered by Corcoran Park Slope,Pending,699000,3,2,1250,280 Clinton B Fiske Ave,"Staten Island, NY 10314",United States,New York,Richmond County,40.6165969,-74.1340662
Brokered by Momentum Real Estate Llc,Pending,949000,4,4,2920,6 Mann Ave,"Staten Island, NY 10314",United States,New York,Richmond County,40.6134167,-74.1334698
Brokered by Maureen Folan R E Group Llc,Pending,1425000,4,3,2184,159-18 28 Ave,"Flushing, NY 11358",United States,New York,Queens County,40.7719037,-73.8044794
Brokered by Douglas Elliman - 575 Madison Ave,Pending,36000000,8,10,16000,12 E 79th St,"New York, NY 10075",United States,New York,New York County,40.7764017,-73.9629479
Brokered by Exit Realty Prime,Pending,765000,4,2,2184,46-10 Glenwood St,"Little Neck, NY 11362",United States,New York,Queens County,40.7714061,-73.732929
Brokered by Douglas Elliman - 575 Madison Ave,Pending,1999000,3,4,2840,158 Jaffrey St,"Brooklyn, NY 11235",United States,New York,Kings County,40.5789619,-73.9430773
Brokered by RE/MAX Team,Pending,758888,4,2,2184,40-26 Benham St,"Elmhurst, NY 11373",United States,New York,Queens County,40.7479833,-73.8746835
Brokered by Keller Williams Rlty Landmark,Pending,1188000,3,2,2184,85-34 Chevy Chase St,"Jamaica, NY 11432",United States,New York,Queens County,40.7199051,-73.7781913
Brokered by EXP Realty,Pending,859000,3,2,2184,110-38 64 Ave Units 36B & 35,"Forest Hills, NY 11375",United States,New York,Queens County,40.7339078,-73.845842
Brokered by COMPASS,Pending,599000,2,3,2184,457 W 57th St Unit 809,"Manhattan, NY 10019",New York,New York County,New York,40.768983,-73.987526
Brokered by Real Broker LLC,Pending,1390000,5,4,1992,1429 Avenue H,"Brooklyn, NY 11230",United States,New York,Kings County,40.6302066,-73.962272
Brokered by CENTURY 21 Zaloom Realty,Pending,1199900,4,4,2393,251 Wilson Ave,"Staten Island, NY 10308",United States,New York,Richmond County,40.5477774,-74.160225
Brokered by Brown Harris Stevens - 130 Fifth Avenue,Pending,1250000,2,2,2184,60 Gramercy Park N Apt 2H,"Manhattan, NY 10010",New York,New York County,New York,40.7385938,-73.9863188
Brokered by Momentum Real Estate Llc,Pending,1039000,3,2,2300,8934 15th Ave,"Brooklyn, NY 11228",United States,New York,Kings County,40.6049171,-74.0166722
Brokered by MARASA REALTY INC,Pending,825000,5,2,2184,170 Amsterdam Ave,"Staten Island, NY 10314",United States,New York,Richmond County,40.6033161,-74.1679729
"Brokered by Nest Seekers International, Midtown",Pending,4999000,3,2,2160,36 Gramercy Park E Apt 5N,"New York, NY 10003",New York,New York County,New York,40.7375223,-73.9849542
Brokered by KELLER WILLIAMS REALTY EMPIRE,Pending,995000,5,2,2128,203 Sterling St,"Brooklyn, NY 11225",United States,New York,Kings County,40.6631136,-73.9544199
Brokered by Brown Harris Stevens,Pending,225000,2,1,600,535 W 163rd St Apt 3,"Manhattan, NY 10032",New York,New York County,New York,40.8375103,-73.9407123
Brokered by RE MAX Edge,Pending,648000,3,2,2112,157 N Pine Ter,"Staten Island, NY 10312",United States,New York,Richmond County,40.5395578,-74.1795806
Brokered by BHHS New York Properties,Pending,895000,2,2,1111,343 E 74th St Apt 20B,"New York, NY 10021",New York,New York County,New York,40.7696861,-73.9557104
Brokered by Realty Connect Usa L I Inc,Pending,669000,3,1,1080,42-39 248th St,"Little Neck, NY 11363",United States,New York,Queens County,40.7696159,-73.7403605
Brokered by Douglas Elliman - 2112 Frederick Douglass Blvd,Pending,2495000,5,4,4230,217 W 122nd St,"New York, NY 10027",United States,New York,New York County,40.807581,-73.9505281
"Brokered by CITI - Citi Habitats, Inc. - NY",Pending,199999,9,3,2184,429 Pennsylvania Ave,"Brooklyn, NY 11207",United States,New York,Kings County,40.666792,-73.894205
Brokered by Corcoran Williamsburg Bedford,Pending,2100000,3,2,1902,76 Powers St,"Brooklyn, NY 11211",United States,New York,Kings County,40.7118832,-73.947991
Brokered by COMPASS,Pending,1895000,3,2,1230,47 Bridge St Apt 3C,"Brooklyn, NY 11201",New York,Kings County,Brooklyn,40.7032131,-73.9845345
Brokered by COMPASS,Pending,1895000,3,2,1230,47 Bridge St Apt 3C,"Brooklyn, NY 11201",New York,Kings County,Brooklyn,40.7032131,-73.9845345
Brokered by TDMT - The Development Marketing Team,Pending,560000,2,1,2184,345 Bedford Ave Apt D2,"Brooklyn, NY 11211",New York,Kings County,Brooklyn,40.7121147,-73.9626871
Brokered by Jamie & Connie Real Estate Grp,Pending,1380000,6,4,2184,150-39 59th Ave,"Flushing, NY 11355",United States,New York,Queens County,40.7416665,-73.8173924
Brokered by Arash Real Estate & Mgmt,Pending,749000,3,1,2184,7 Van Nostrand Ct,"Little Neck, NY 11362",United States,New York,Queens County,40.7714035,-73.733393
Brokered by COMPASS,Pending,1225000,4,2,2184,34-47 80th St Unit 31,"Queens, NY 11372",New York,Queens County,Queens,40.7535399,-73.8868899
Brokered by Berkshire Hathaway,Pending,199000,3,2,1100,1259 Grant Ave Apt 5H,"Bronx, NY 10456",New York,Bronx County,The Bronx,40.8344217,-73.914718
Brokered by COMPASS,Pending,749000,1,1,2184,88 Charles St Apt 3D,"Manhattan, NY 10014",New York,New York County,New York,40.7345653,-74.0041732
Brokered by COMPASS,Pending,675000,3,0,2780,41 Warren St Unit Subc,"Manhattan, NY 10007",New York,New York County,New York,40.7143933,-74.0088774
Brokered by COMPASS,Pending,675000,3,0,2780,41 Warren St Unit Subc,"Manhattan, NY 10007",New York,New York County,New York,40.7143933,-74.0088774
Brokered by COMPASS,Pending,4500000,1,2,5400,129 Russell St Unit Commercial,"Brooklyn, NY 11222",United States,New York,Kings County,40.7248276,-73.9446616
Brokered by Corcoran Brooklyn Heights,Pending,3250000,8,5,2184,1123 Albemarle Rd,"Brooklyn, NY 11218",United States,New York,Kings County,40.6467032,-73.9685896
Brokered by Sotheby's International Realty - Downtown Manhattan,Pending,399000,2,1,2184,301 E 63rd St Apt 4B,"New York, NY 10065",New York,New York County,New York,40.7631466,-73.9622114
Brokered by COMPASS,Pending,435000,1,1,2184,155 Hicks St Unit 5A,"Brooklyn, NY 11201",New York,Kings County,Brooklyn,40.6969047,-73.9948252
Brokered by Charles H. Greenthal Property,Pending,289000,1,2,1213,27110 Grand Central Pkwy Apt 1O,"Floral Park, NY 11005",New York,Queens County,Queens,40.7564761,-73.7212008
Brokered by Corcoran Park Slope,Pending,1395000,2,2,1028,357 6th Ave Apt 1,"Brooklyn, NY 11215",New York,Kings County,Brooklyn,40.670563,-73.981488
Brokered by Corcoran West Side Gallery,Pending,299000,3,1,2184,465 W 57th St Apt 3B,"New York, NY 10019",New York,New York County,New York,40.76907,-73.987788
Brokered by COMPASS,Pending,1599000,6,4,3690,33-17 85th St,"Jackson Heights, NY 11372",United States,New York,Queens County,40.7552678,-73.8822127
Brokered by Prime Realty,Pending,1399000,4,2,1800,35-12 213th St,"Bayside, NY 11361",United States,New York,Queens County,40.768361,-73.7747442
Brokered by COMPASS,Pending,2800000,5,4,3400,232 Argyle Rd,"Brooklyn, NY 11218",United States,New York,Kings County,40.6435168,-73.9669556
Brokered by Brown Harris Stevens - 129 Montague Street,Pending,1250000,1,1,2184,17 W 10th St Apt 3N,"Manhattan, NY 10011",New York,New York County,New York,40.7340094,-73.9963862
Brokered by Howard Hanna Coach Realtors - Williston Park,Pending,775000,4,2,1230,92-19 241st St,"Bellerose, NY 11426",United States,New York,Queens County,40.7258337,-73.7268795
Brokered by Houlihan Lawrence,Pending,205000,1,1,660,5921 Calloway St Apt 2U,"Corona, NY 11368",New York,Queens County,Queens,40.7376662,-73.8566546
Brokered by Douglas Elliman - 1995 Broadway,Pending,729000,2,1,2184,193 Bleecker St Apt 12B,"New York, NY 10012",New York,New York County,New York,40.7293904,-74.0013331
Brokered by Maureen Folan R E Group Llc,Pending,1098000,4,4,2184,213-07 28th Ave,"Bayside, NY 11360",United States,New York,Queens County,40.7770737,-73.7760771
Brokered by RE MAX Edge,Pending,675000,3,2,1444,46 Coddington Ave,"Staten Island, NY 10306",United States,New York,Richmond County,40.5712145,-74.1132944
"Brokered by BEN BAY REALTY, CO.",Pending,625000,3,2,1040,108 Howton Ave,"Staten Island, NY 10308",United States,New York,Richmond County,40.557402,-74.148792
Brokered by COMPASS,Pending,499000,2,2,1358,7272 Royce Pl Unit G1-9,"Brooklyn, NY 11234",New York,Kings County,Brooklyn,40.6248278,-73.909396
Brokered by RE MAX Real Estate Professionals,Pending,485000,3,2,1200,2652 Cropsey Ave Apt 14H,"Brooklyn, NY 11214",United States,New York,Kings County,40.5883839,-73.9910376
Brokered by Corcoran Park Slope,Pending,709000,3,3,2184,1249 E 87th St,"Brooklyn, NY 11236",United States,New York,Kings County,40.6330746,-73.9014669
Brokered by Douglas Elliman - Huntington,Pending,399000,1,1,2184,6939A Park Dr E Unit A,"Kew Garden Hills, NY 11367",United States,New York,Queens County,40.7231998,-73.8267722
Brokered by Corcoran Park Avenue South,Pending,825000,2,2,930,41-18 27th St Apt 1A,"New York, NY 11101",New York,Queens County,Queens,40.7515161,-73.9389442
"Brokered by Ronald Greene, Realtor",Pending,698999,3,2,2184,149-47 115th St,"South Ozone Park, NY 11420",United States,New York,Queens County,40.6680173,-73.8253534
Brokered by Corcoran Park Slope,Pending,5250000,4,4,2184,18 Fillmore Pl,"Brooklyn, NY 11211",United States,New York,Kings County,40.7140169,-73.9587962
Brokered by Keller Williams Rlty Landmark,Pending,1098888,2,3,2184,34 Center Dr,"Malba, NY 11357",United States,New York,Queens County,40.7899772,-73.828053
Brokered by REO First Choice Realty LLC.,Pending,1200000,3,2,3280,1176 Bushwick Ave,"Brooklyn, NY 11221",United States,New York,Kings County,40.688515,-73.916949
"Brokered by Compass Greater Ny, Llc",Pending,799000,4,2,1560,62 Daleham St,"Brooklyn, NY 10308",United States,New York,Richmond County,40.5642806,-74.1530498
Brokered by COMPASS,Pending,550000,3,2,1292,21 Locust Ct,"Staten Island, NY 10309",United States,New York,Richmond County,40.5482041,-74.2109853
Brokered by Douglas Elliman - Syosset,Pending,1088888,3,4,2550,163-36 98th St,"Howard Beach, NY 11414",United States,New York,Queens County,40.6520565,-73.8335563
Brokered by KELLER WILLIAMS REALTY LANDMARK II,Pending,749000,3,3,1368,90-47 176th St,"Jamaica, NY 11432",United States,New York,Queens County,40.7088867,-73.7844919
Brokered by Modern Spaces Love Your Place,Pending,325000,2,1,2184,36 Hamilton Ave Apt 6K,"Staten Island, NY 10301",New York,Richmond County,Staten Island,40.6449121,-74.0787385
Brokered by COMPASS,Pending,2500000,5,4,4400,210 Jefferson Ave,"Brooklyn, NY 11216",United States,New York,Kings County,40.6832052,-73.9491758
Brokered by Keller Williams Rlty Landmark,Pending,1848888,6,4,3234,85-26 Edgerton Blvd,"Jamaica, NY 11432",United States,New York,Queens County,40.7160582,-73.7872685
Brokered by Fillmore Real Estate,Pending,559900,5,2,1886,7315 Avenue U,"Brooklyn, NY 11234",United States,New York,Kings County,40.6211924,-73.905796
Brokered by Douglas Elliman - Bayside,Pending,995000,4,2,2184,45-53 169 St,"Flushing, NY 11358",United States,New York,Queens County,40.7543498,-73.797977
Brokered by Ditommaso Real Estate,Pending,769000,3,2,1170,10 Neal Dow Ave,"Staten Island, NY 10314",United States,New York,Richmond County,40.6222601,-74.1349837
Brokered by Ditommaso Real Estate,Pending,769000,3,2,1170,10 Neal Dow Ave,"Staten Island, NY 10314",United States,New York,Richmond County,40.6222601,-74.1349837
Brokered by Keller Williams Points North,Pending,540000,2,2,823,118-82 Metropolitan Ave Unit 7C,"Kew Gardens, NY 11415",New York,Queens County,Queens,40.7059564,-73.8319922
Brokered by Brown Harris Stevens,Pending,249000,2,1,900,2601 Henry Hudson West Parkway Pkwy W Unit 6C,"Bronx, NY 10463",United States,New York,Bronx County,40.8808392,-73.9191025
Brokered by Coldwell Banker American Homes,Pending,250000,1,1,2184,18 Brighton 8th,"Brighton Beach, NY 11235",United States,New York,Kings County,40.5838809,-73.9614297
Brokered by Challenger Brokers,Pending,860000,3,4,2325,270 Ramapo Ave,"Staten Island, NY 10309",United States,New York,Richmond County,40.5394441,-74.2109853
Brokered by Brooklynnybpo.Com Llc,Pending,1600000,6,2,2128,155 Sterling St,"Brooklyn, NY 11225",United States,New York,Kings County,40.6630373,-73.9558549
Brokered by Coldwell Banker American Homes,Pending,999999,5,3,2184,91-31 113th St,"Richmond Hill, NY 11418",United States,New York,Queens County,40.6941485,-73.8335209
Brokered by Corcoran Park Slope,Pending,1995000,2,2,2184,246 Sherman St,"Brooklyn, NY 11218",United States,New York,Kings County,40.652842,-73.974441
Brokered by NEUHAUS REALTY INC.,Pending,1280000,5,4,3600,371 Swinnerton St,"Staten Island, NY 10307",United States,New York,Richmond County,40.4995462,-74.2443078
Brokered by CENTURY 21 MK Realty,Pending,589000,4,2,2235,1118 Bay 24th St,"Far Rockaway, NY 11691",United States,New York,Queens County,40.6054311,-73.7620238
Brokered by JABOUR REALTY COMPANY,Pending,1099000,3,2,1472,32 Oliver St,"Brooklyn, NY 11209",United States,New York,Kings County,40.6193503,-74.0388023
Brokered by Douglas Elliman - 280 Metropolitan,Pending,799000,2,2,850,622 Madison St Unit Townhouse,"Brooklyn, NY 11221",United States,New York,Kings County,40.6864817,-73.9334333
Brokered by La Rosa Realty New York Llc,Pending,119000,3,1,2184,86-16 60th Ave Unit 1C,"Elmhurst, NY 11373",New York,Queens County,Queens,40.7306154,-73.8731934
Brokered by Douglas Elliman - Bayside,Pending,970000,3,2,2184,47-08 248th St,"Little Neck, NY 11362",United States,New York,Queens County,40.764944,-73.738236
Brokered by RE MAX Elite,Pending,1649000,7,2,3162,628 56th St,"Brooklyn, NY 11220",United States,New York,Kings County,40.6398568,-74.0109732
Brokered by Brown Harris Stevens - 445 Park Avenue,Pending,375000,1,1,2184,162 E 2nd St Apt B,"Manhattan, NY 10009",New York,New York County,New York,40.7228235,-73.98509
Brokered by Brown Harris Stevens - 445 Park Avenue,Pending,375000,1,1,2184,162 E 2nd St Apt B,"Manhattan, NY 10009",New York,New York County,New York,40.7228235,-73.98509
Brokered by Douglas Elliman  -111 Fifth Ave,Pending,950000,1,1,2184,82 Charles St Apt 5R,"New York, NY 10014",New York,New York County,New York,40.7346124,-74.0039065
Brokered by Corcoran Park Slope,Pending,1795000,2,2,2184,420 12th St Apt H1L,"Brooklyn, NY 11215",New York,Kings County,Brooklyn,40.6646996,-73.9831407
Brokered by COMPASS,Pending,750000,3,2,1260,1947 Adam Clayton Powell Jr Blvd Apt 1,"Manhattan, NY 10026",United States,New York,New York County,40.8040569,-73.951435
Brokered by TREBACH REALTY INC,Pending,1595000,4,2,2627,519 Tulfan Ter,"Bronx, NY 10463",United States,New York,Bronx County,40.8872408,-73.9082189
Brokered by TREBACH REALTY INC,Pending,1595000,4,2,2627,519 Tulfan Ter,"Bronx, NY 10463",United States,New York,Bronx County,40.8872408,-73.9082189
Brokered by COMPASS,Pending,999000,1,2,1150,403 E 62nd St Apt 14A,"Manhattan, NY 10065",New York,New York County,New York,40.7614157,-73.9599761
Brokered by EXP Realty,Pending,100000,3,1,445,87-70 173rd St Unit 5J,"Jamaica, NY 11432",New York,Queens County,Queens,40.711337,-73.789277
Brokered by Sotheby's International Realty - East Side Manhattan Brokerage,Pending,1150000,2,2,2184,67 Park Ave # 9B,"New York, NY 10016",New York,New York County,New York,40.74958,-73.9790355
Brokered by Keller Williams Realty Liberty,Pending,299000,2,1,2184,155-21 86 St Unit 3,"Howard Beach, NY 11414",New York,Queens County,Queens,40.6642386,-73.8477653
Brokered by RE MAX Edge,Pending,495000,2,2,1100,9967 Shore Rd Apt 7E,"Brooklyn, NY 11209",New York,Kings County,Brooklyn,40.6123382,-74.0356075
Brokered by RE MAX Edge,Pending,495000,2,2,1100,9967 Shore Rd Apt 7E,"Brooklyn, NY 11209",New York,Kings County,Brooklyn,40.6123382,-74.0356075
Brokered by Douglas Elliman - 1995 Broadway,Pending,1295000,1,1,2184,55 Central Park W Apt 12B,"New York, NY 10023",New York,New York County,New York,40.7722757,-73.979081
Brokered by COMPASS,Pending,420000,1,1,2184,18 E 63rd St Apt 9,"Manhattan, NY 10065",New York,New York County,New York,40.7661564,-73.9700846
Brokered by UNITED NATIONAL REALTY,Pending,599900,6,4,2184,268 Westervelt Ave,"Staten Island, NY 10301",United States,New York,Richmond County,40.6412495,-74.083228
Brokered by COMPASS,Pending,420000,1,1,2184,18 E 63rd St Apt 9,"Manhattan, NY 10065",New York,New York County,New York,40.7661564,-73.9700846
Brokered by COMPASS,Pending,360000,1,1,2184,425 E 78th St Apt 1C,"Manhattan, NY 10075",New York,New York County,New York,40.7711911,-73.9516646
Brokered by Douglas Elliman - Bayside,Pending,825000,2,1,2184,33-11 73rd St,"Jackson Heights, NY 11372",United States,New York,Queens County,40.7542784,-73.8933876
Brokered by Keller Williams Legendary,Pending,450000,2,1,2184,37-26 87th St Unit 2F,"Jackson Heights, NY 11372",New York,Queens County,Queens,40.749416,-73.8796895
Brokered by Corcoran,Pending,210000,1,1,850,135 Ocean Pkwy Apt 1R,"Kensington, NY 11218",New York,Kings County,Brooklyn,40.6466766,-73.9740956
Brokered by Calabrese Real Estate,Pending,565000,2,2,1238,537 Annadale Rd,"Staten Island, NY 10312",United States,New York,Richmond County,40.5493207,-74.1744217
Brokered by COMPASS,Pending,1099000,1,1,715,2 Northside Piers Apt 6F,"Brooklyn, NY 11249",New York,Kings County,Brooklyn,40.719753,-73.9642643
Brokered by Berkshire Hathaway,Pending,1188000,7,2,2184,86-17 105th St,"Richmond Hill, NY 11418",United States,New York,Queens County,40.696809,-73.842496
Brokered by Charles H. Greenthal Property,Pending,959000,2,2,1719,27110 Grand Central Pkwy Apt 30O,"Floral Park, NY 11005",New York,Queens County,Queens,40.7564761,-73.7212008
Brokered by PEERLESS PROPERTIES CORP.,Pending,559900,2,1,1217,158-11 96th St,"Howard Beach, NY 11414",United States,New York,Queens County,40.6609023,-73.8371049
Brokered by Douglas Elliman - Bayside,Pending,780000,3,2,1900,250-38 39th Rd,"Little Neck, NY 11363",United States,New York,Queens County,40.7742555,-73.7407295
Brokered by Douglas Elliman - 575 Madison Ave,Pending,595000,1,1,2184,210 Sixth Ave Unit 1G,"New York, NY 10014",New York,New York County,New York,40.7271763,-74.0030659
Brokered by EXP Realty,Pending,938000,2,2,1700,66-43 Alderton St,"Rego Park, NY 11374",United States,New York,Queens County,40.7183478,-73.858704
Brokered by Douglas Elliman - Bayside,Pending,1238000,3,2,1550,44-11 192nd St,"Flushing, NY 11358",United States,New York,Queens County,40.7561033,-73.7889919
NoBroker,Pending,895000,2,1,2184,365 W 20th St Apt 9C,"Manhattan, NY 10011",New York,New York County,New York,40.7443407,-74.0016248
Brokered by COMPASS,Pending,2750000,3,4,2900,171 W 57th St Apt 11B,"Manhattan, NY 10019",New York,New York County,New York,40.7656355,-73.9795713
Brokered by Ldm Real Estate Llc,Pending,1688000,4,3,2880,1307 157th St,"Whitestone, NY 11357",United States,New York,Queens County,40.7897224,-73.8045254
Brokered by Douglas Elliman - 140 Franklin,Pending,1295000,2,2,2000,130 W 26th St Apt 3,"New York, NY 10001",New York,New York County,New York,40.7450475,-73.9923569
Brokered by Corcoran SoHo,Pending,1775000,2,2,2184,21 Monroe Pl Apt 3FL,"Brooklyn, NY 11201",New York,Kings County,Brooklyn,40.6965907,-73.9926789
Brokered by Olam Realty Group,Pending,769000,2,2,2184,102-42 63rd Ave,"Forest Hills, NY 11375",United States,New York,Queens County,40.7339071,-73.8535727
Brokered by COMPASS,Pending,4650000,6,2,4734,168 Lafayette Ave,"Brooklyn, NY 11238",United States,New York,Kings County,40.6875443,-73.9701737
Brokered by Douglas Elliman - Franklin Square,Pending,680000,4,2,1536,135-30 94th St,"Ozone Park, NY 11417",United States,New York,Queens County,40.6729488,-73.8425151
Brokered by Sotheby's International Realty - East Side Manhattan Brokerage,Pending,13650000,5,2,2184,164 E 70th St,"New York, NY 10021",United States,New York,New York County,40.7686449,-73.9625686
Brokered by COMPASS,Pending,550000,3,2,1520,9 Zoe St,"Staten Island, NY 10305",United States,New York,Richmond County,40.5878221,-74.097086
Brokered by Corcoran Park Slope,Pending,2650000,5,2,2500,64 E 86th St # 10BA,"New York, NY 10028",New York,New York County,New York,40.7804508,-73.9582141
"Brokered by BEN BAY REALTY, CO.",Pending,599000,3,3,1392,245 Doane Ave,"Staten Island, NY 10308",United States,New York,Richmond County,40.5556599,-74.1550879
Brokered by TDMT - The Development Marketing Team,Pending,450000,2,1,2184,256 S 4th St Apt 6,"Brooklyn, NY 11211",New York,Kings County,Brooklyn,40.709819,-73.957902
Brokered by Coldwell Banker Reliable Real Estate,Pending,599889,2,2,2184,217-10 135th Ave,"Springfield Gardens, NY 11413",United States,New York,Queens County,40.6782347,-73.7528651
Brokered by Corcoran Park Slope,Pending,399000,1,1,775,7101 Shore Rd Apt 3D,"Brooklyn, NY 11209",New York,Kings County,Brooklyn,40.6363145,-74.0363466
Brokered by ATLANTIC PROPERTIES REALTY INC,Pending,314000,1,1,875,80 Avenue P Apt B1,"Brooklyn, NY 11204",New York,Kings County,Brooklyn,40.60714,-73.985744
Brokered by Douglas Elliman - 325 Court,Pending,549999,3,2,1652,30 Stonegate Dr Unit 1,"Staten Island, NY 10304",New York,Richmond County,Staten Island,40.6016923,-74.0869707
Brokered by Douglas Elliman - Franklin Square,Pending,245000,2,1,2184,80-04 155th Ave Unit 207,"Howard Beach, NY 11414",New York,Queens County,Queens,40.6641199,-73.85371
"Brokered by BEN BAY REALTY, CO.",Pending,838000,4,4,2780,114 Tyrrell St,"Staten Island, NY 10307",United States,New York,Richmond County,40.5124611,-74.2488941
Brokered by Cross Country Realty,Pending,825000,6,2,2444,80 Kelvin Ave,"Staten Island, NY 10306",United States,New York,Richmond County,40.5546232,-74.1349952
Brokered by PEERLESS PROPERTIES CORP.,Pending,329000,2,2,1200,1750 E 14th St Apt 6B,"Brooklyn, NY 11229",New York,Kings County,Brooklyn,40.6068155,-73.9592184
Brokered by Keller Williams Rlty Landmark,Pending,925000,3,2,2184,61-19 75th Pl,"Middle Village, NY 11379",United States,New York,Queens County,40.7223571,-73.8834031
Brokered by Corcoran Park Avenue South,Pending,625000,1,1,2184,281 W 11th St Apt 4A,"New York, NY 10014",New York,New York County,New York,40.7362044,-74.0047875
Brokered by Keller Williams Rlty Landmark,Pending,249000,1,1,700,57-07 246th Cres Unit 2,"Douglaston, NY 11362",New York,Queens County,Queens,40.7576008,-73.7355418
Brokered by COMPASS,Pending,949000,2,1,2184,440 Riverside Dr Apt 105,"Manhattan, NY 10027",New York,New York County,New York,40.8089034,-73.965519
Brokered by Douglas Elliman  -111 Fifth Ave,Pending,700000,1,1,500,23 Waverly Pl # T,"New York, NY 10003",United States,New York,New York County,40.7304336,-73.9946441
Brokered by Corcoran Brooklyn Heights,Pending,225000,3,1,2184,100 Remsen St Apt 1E,"Brooklyn, NY 11201",New York,Kings County,Brooklyn,40.6939582,-73.9943695
Brokered by MCVEY JOAN M,Pending,925000,4,4,1672,481 Genesee Ave,"Staten Island, NY 10312",United States,New York,Richmond County,40.5522652,-74.1732406
Brokered by MCVEY JOAN M,Pending,925000,4,4,1672,481 Genesee Ave,"Staten Island, NY 10312",United States,New York,Richmond County,40.5522652,-74.1732406
Brokered by Charles H. Greenthal Property,Pending,399000,1,2,1341,26910 Grand Central Pkwy Apt 2V,"Floral Park, NY 11005",New York,Queens County,Queens,40.7577991,-73.7159564
Brokered by Douglas Elliman - 936 Broadway,Pending,1250000,2,2,2184,13 W 13th St Apt 1AS,"New York, NY 10011",New York,New York County,New York,40.7360052,-73.9950777
Brokered by Corcoran Park Slope,Pending,1500000,3,2,2184,95 Pierrepont St # 1CD,"Brooklyn, NY 11201",New York,Kings County,Brooklyn,40.6955436,-73.9936975
Brokered by AHS AUDIT HOME SOLUTIONS,Pending,549000,6,4,2184,40-45 95 St,"Elmhurst, NY 11373",United States,New York,Queens County,40.7478254,-73.8704979
Brokered by COMPASS,Pending,700000,2,2,1110,1769 E 13th St Apt 6B,"Brooklyn, NY 11229",New York,Kings County,Brooklyn,40.6062808,-73.9595399
Brokered by Corcoran Westside Columbus,Pending,250000,3,1,246,188 E 75th St Apt 1B,"New York, NY 10021",New York,New York County,New York,40.7718652,-73.9599302
Brokered by Corcoran East Side,Pending,1175000,3,1,1500,145 Central Park W Apt 1B,"New York, NY 10023",New York,New York County,New York,40.7778949,-73.9750972
Brokered by Jamie & Connie Real Estate Grp,Pending,1058000,3,2,2184,105-26 65th Rd,"Forest Hills, NY 11375",United States,New York,Queens County,40.7303746,-73.8497286
Brokered by CENTURY 21 KR REALTY,Pending,555000,3,2,2184,780 Stafford Ave,"Staten Island, NY 10309",United States,New York,Richmond County,40.5403437,-74.2041065
Brokered by RE MAX Elite,Pending,1299999,6,5,3608,557 Beach 129th St,"Queens, NY 11694",United States,New York,Queens County,40.5812073,-73.8512446
